CondoName,SalePrice,RentPrice,RoomArea,UnitNbr,FloorNbr,nbrBed,nbrBath,nbrPark,nbrAirCon,Latitude,Longitude
,8400000,40000,75,,,2,,,,13.734664,100.584833
แอชตัน จุฬา-สีลม,7620000,,35,,,1,1,,,13.731096,100.531012
เอช สุขุมวิท 43,7750000,,64,,,2,2,,,13.732767,100.574008
,7020000,35000,55,,,2,2,,,13.717117,100.589111
ฟิวส์ สาทร - ตากสิน,5319148,,32,,,1,1,,,13.720432,100.496983
,12000000,58000,103,,,2,2,,,13.724999,100.582888
เซ็นทริค รัชดา-สุทธิสาร,5000000,,41,,,1,1,,,13.789912,100.573599
ศุภาลัย เอลีท แอท พญาไท,9176000,,70,,,1,1,,,13.756987,100.539217
,5190000,,33,,,2,1,,,13.751983,100.534693
ไอดีโอ วุฒากาศ,3730000,30000,45,,,1,1,,,13.714664,100.467627
,5830000,27000,62,,,2,2,,,13.804437,100.576231
,9440000,,52,,,1,1,,,13.722573,100.580227
วิสซ์ดอม อเวนิว รัชดา-ลาดพร้าว,4720000,,31,,,1,1,,,13.80522,100.574214
แอสปาย สาทร-ตากสิน ทิมเบอร์ โซน,2670000,,31,,,1,1,,,13.715635,100.479962
ไดมอนด์ รัชดา คอนโดมิเนียม,4800000,,50,,,2,2,,,13.774692,100.573953
ไอดีโอ สาทร-ท่าพระ,2500000,12000,28,,,,1,,,13.717258,100.482319
แอชตัน จุฬา-สีลม,7004100,,34,,,1,1,,,13.731096,100.531012
เดอะ พาโน ริเวอร์ฟรอนท์ ลิฟวิ่ง เซนเซชั่น,17600000,,159,,,2,2,,,13.671397,100.541818
แอชตัน อโศก,8700000,,35,,,1,1,,,13.738898,100.5609
ริทึ่ม รัชดา,4260000,20000,35,,,1,1,,,13.798751,100.575843
333 ริเวอร์ไซด์,6490000,,46,,,1,1,,,13.806523,100.51946
เดอะ เครสท์ สุขุมวิท 34,14860000,,55,,,2,2,,,13.725295,100.576498
The Room สาทร-ตากสิน,4370000,,47,,,1,1,,,13.717746,100.483477
ไอวี แอมพิโอ,6990000,27000,44,,,1,1,,,13.762857,100.568267
วิลล่า สาทร,5950000,25000,59,,,1,1,,,13.721234,100.504148
,8600000,,47,,,1,1,,,13.739801,100.551763
เดอะ โมนูเมนต์ สนามเป้า,22680412,,74,,,2,2,,,13.76945,100.540555
เอดจ์ สุขุมวิท 23,15500000,,64,,,2,2,,,13.736521,100.563365
เดอะ ดิโพลแมท 39,20000000,,60,,,1,1,,,13.731507,100.570729
คาซ่า คอนโด รัชดา-ราชพฤกษ์ ,2580000,,27,,,1,1,,,13.713727,100.476237
เออร์บาโน่ แอบโซลูท สาทร-ตากสิน,4500000,25000,38,,,1,1,,,13.721125,100.507202
,3600000,,32,,,1,1,,,13.714678,100.604522
ไอดีโอ โมบิ สาทร,4680000,,30,,,1,1,,,13.721271,100.500588
เมย์แฟร์ เพลส สุขุมวิท 50,5280000,,44,,,2,1,,,13.704712,100.594891
ไลฟ์ อโศก-พระราม 9 ,3700000,,28,,,,1,,,13.754357,100.563878
,8120000,,58,,,2,2,,,13.754357,100.563878
ไอดีโอโมบิ วงศ์สว่าง-อินเตอร์เชนจ์,3610000,,30,,,1,1,,,13.818953,100.532139
ไอดีโอ โมบิ บางซื่อ แกรนด์ อินเตอร์เช้นจ์,3720000,,27,,,1,1,,,13.805893,100.533039
แอสปาย สุขุมวิท 48,4470000,,38,,,1,1,,,13.71118,100.593972
ไอดีโอ มอร์ฟ 38,6000000,25000,38,,,1,1,,,13.720934,100.579078
บ้านกลางกรุง สยาม-ปทุมวัน,10640000,30000,67,,,2,2,,,13.751836,100.531988
,3630000,,34,,,1,1,,,13.740556,100.60006
เดอะ คีย์ สาทร-ราชพฤกษ์,4330000,,50,,,2,1,,,13.712998,100.465803
ไอดีโอ คิว สยาม - ราชเทวี,5600000,,30,,,1,1,,,13.75301,100.533877
เดอะ ไลน์ สุขุมวิท 71,5320000,19900,31,,,1,1,,,13.715203,100.594754
,2520000,,25,,,,1,,,,
,4280000,,35,,,1,1,,,13.698563,100.604805
,7200000,,35,,,1,1,,,13.722468,100.58455
เลอ ลัก คอนโดมิเนียม,4500000,,37,,,1,1,,,13.714591,100.593232
เดอะ เซนต์ เรสิเดนเซส ,4660000,,30,,,1,1,,,13.811758,100.560022
ยู ดีไลท์ @ จตุจักร สเตชั่น,3600000,,33,,,1,1,,,13.798425,100.556417
โนเบิล รีโว สีลม,11860000,55000,66,,,2,2,,,13.719509,100.519492
,4300000,,29,,,1,1,,,13.722909,100.576852
ไลฟ์ อโศก-พระราม 9 ,4420000,,32,,,1,1,,,13.754357,100.563878
คอนโดเลต พิกเซล สาทร,2775000,10000,22,,,,1,,,13.718225,100.549333
,2300000,,22,,,,1,,,13.717258,100.482319
คิวเฮ้าส์ คอนโด สาทร ,6000000,24000,47,,,1,1,,,13.72129,100.501253
,4640000,,35,,,1,1,,,13.721571,100.497397
,5170000,,61,,,2,2,,,13.804437,100.576231
ไอดีโอ คิว ราชเทวี,11400000,,,,,2,2,,,13.75282,100.533865
,4150000,,40,,,1,1,,,13.807363,100.570213
เดอะทรี อินเตอร์เชนจ์,3150000,,35,,,1,1,,,13.805573,100.525556
แอชตัน จุฬา-สีลม,7180000,,35,,,1,1,,,13.731096,100.531012
ดิ แอดเดรส สุขุมวิท 42,5220000,23000,46,,,1,1,,,13.716839,100.585358
เอ สเปซ ไอดี อโศก-รัชดา,4790000,,33,,,1,1,,,13.756804,100.560239
ไฮด์ สุขุมวิท,10600000,,50,,,1,1,,,13.740361,100.557288
เดอะ พาโน ริเวอร์ฟรอนท์ ลิฟวิ่ง เซนเซชั่น,10630000,,61,,,1,1,,,13.671397,100.541818
วิลล่า ราชเทวี,9580000,35000,51,,,1,1,,,13.754345,100.532544
เซอร์เคิล สุขุมวิท 11,8300000,,48,,,1,1,,,13.749738,100.556046
,17880000,,156,,,3,3,,,13.736134,100.562774
,3450000,,29,,,1,1,,,13.724903,100.563369
,9600000,,90,,,2,2,,,13.720641,100.528207
คอนโดเลต ไอซ์ ราชเทวี,5000000,18000,31,,,1,1,,,13.753338,100.530981
มาเอสโตร 07 อนุสาวรีย์,9023830,,60,,,2,2,,,13.755287,100.530902
วิสต้าการ์เด้นคอนโดมิเนียม,2900000,18000,45,,,1,1,,,13.713986,100.599431
พาโน วิลล์ รัชดา 19,2500000,,32,,,1,1,,1,13.799954,100.573651
,4420000,,25,,,,1,,,13.795858,100.550205
ไอดีโอ โมบิ บางซื่อ แกรนด์ อินเตอร์เช้นจ์,4450000,,32,,,1,1,,,13.805893,100.533039
ลิฟ แอท 49,8970000,,45,,,1,1,,,13.728634,100.575585
ไอดีโอ คิว สยาม - ราชเทวี,10310000,,60,,,2,2,,,13.75301,100.533877
นารา ไนน์,13500000,,78,,,2,2,,,13.71782,100.532711
,11330000,,42,,,1,1,,,13.738779,100.561802
แอชตัน อโศก,8500000,,34,,,1,1,,,13.738898,100.5609
เดอะทรัสต์ เรสซิเด้นซ์ รัชดา-พระราม 3,2500000,15000,30,,,1,1,,,13.694152,100.536283
ริทึ่ม รางน้ำ,6890000,,35,,,1,1,,,13.761155,100.536971
ไอดีโอ คิว สยาม - ราชเทวี,6770000,,34,,,1,1,,,13.75301,100.533877
เซอร์เคิล คอนโดมิเนียม,5700000,,48,,,1,1,,,13.749275,100.555941
แอสปาย พระราม 4,3550000,,37,,,1,1,,,13.712091,100.584143
ไลฟ์ อโศก-พระราม 9 ,6300000,,40,,,1,1,,,13.754357,100.563878
เดอะ บริส นราธิวาส,5500000,30000,47,,,1,1,,,13.696291,100.544662
เดอะ ซี้ด มูซี่,6500000,26000,45,,,1,1,,,13.725252,100.570963
,6400000,,30,,,1,1,,,13.722468,100.58455
,2470000,,33,,,,1,,,13.711298,100.479447
ไฮฟ์ สาทร,7990000,,70,,,2,2,,,13.721524,100.502324
,2699000,,46,,,1,1,,,13.771975,100.57779
ไลฟ์ แอท รัชดา-ห้วยขวาง,8520000,45000,65,,,2,2,,,13.778809,100.574207
แมกโนเลียส์ วอเตอร์ฟรอนท์ เรสซิเดนซ์ ณ ไอคอนสยาม,17422680,,66,,,1,1,,,13.727956,100.511167
วิช ซิกเนเจอร์ มิดทาวน์ สยาม,5671000,,30,,,1,1,,,13.751983,100.534693
,7450000,,50,,,2,2,,,13.695377,100.605772
ฟิวส์ จันทน์-สาทร,4270000,,35,,,1,1,,,13.705683,100.530433
เดอะ สตาร์ เอสเตท พระราม 3,4790000,,58,,,1,1,,,13.674774,100.534755
,4100000,,29,,,1,1,,,13.722909,100.576852
,4771000,,40,,,1,1,,,,
เดอะ คีย์ สาทร-เจริญราษฎร์,6100000,,56,,,2,2,,,13.701033,100.516013
,5650000,,48,,,1,1,,,13.729919,100.5075
ไอดีโอมิกซ์ สุขุมวิท 103 ,2980000,12000,24,,,,1,,,13.680549,100.610491
เดอะ ไลน์ จตุจักร-หมอชิต,7000000,25000,34,,,1,1,,,13.806244,100.556048
วิสซ์ดอม สเตชั่น รัชดา-ท่าพระ,2866000,,23,,,,1,,,13.713712,100.478352
ไลฟ์ อโศก,4330000,,29,,,1,1,,,13.750283,100.564773
The Room พระราม 4,7700000,,44,,,1,1,,,13.736319,100.52076
ไอดีโอ คิว ราชเทวี,6400000,,34,,,1,1,,,13.75282,100.533865
,460000,,30,,,1,1,1,1,,
สิริ แอท สุขุมวิท,15960000,60000,74,,,2,2,,,13.722573,100.580227
,2500000,,30,,,1,1,,,13.684062,100.603963
ไลฟ์ แอท ท่าพระ,2660000,10000,41,,,1,1,,,13.718129,100.48015
,4790000,,40,,,1,1,,,13.787805,100.54722
คิว คอนโด อโศก ,7840000,,38,,,1,1,,,13.748244,100.562727
ไซมิส สุรวงศ์,12490000,,81,,,3,2,1,1,13.729869,100.527877
โนเบิล รีวอลฟ์ รัชดา 2,3196000,,23,,,,1,,,13.763628,100.569442
,6050000,,46,,,1,1,,,13.77788,100.573958
,3600000,15000,35,,,1,1,,,13.790923,100.543831
มาเอสโตร 03 รัชดา - พระราม 9,4170000,,29,,,1,1,,,13.76283,100.564577
,4150000,,31,,,1,1,,,13.795069,100.550558
ริทึ่ม รางน้ำ,9440000,,47,,,2,2,,,13.761155,100.536971
คอนโด วัน เอ็กซ์ สาทร-นราธิวาส,3500000,15000,32,,,1,1,,,13.699973,100.535977
เดอะ ซี้ด เมมโมรี่ สยาม,6710000,,41,,,1,1,,,13.747857,100.528447
เดอะ ไลน์ จตุจักร-หมอชิต,4760000,,26,,,1,1,,,13.806244,100.556048
,2230000,15000,28,,,1,1,,,,
,22000000,,71,,,2,2,,,13.719733,100.522404
,5770000,,40,,,1,1,,,13.754357,100.563878
โนเบิล รีวอลฟ์ รัชดา,3720000,,26,,,1,1,,,13.763691,100.569463
เดอะ เซนต์ เรสิเดนเซส ,4560000,,31,,,1,1,,,,
แอชตัน อโศก,9000000,,36,,,1,1,,,13.738898,100.5609
เดอะทรี บางโพ สเตชั่น,5500000,,59,,,2,2,,,13.807983,100.521706
วิสซ์ดอม คอนเนค สุขุมวิท,4160000,,19,,,1,1,,,13.685642,100.610619
,2890000,,24,,,,1,,,13.724903,100.563369
โนเบิล รีโคล สุขุมวิท 19,7380000,,35,,,1,1,,,13.742184,100.559938
ไฮด์ สุขุมวิท,9050000,,47,,,1,1,,,13.740361,100.557288
วอเตอร์ฟอร์ต สุขุมวิท 50,3100000,,50,,,1,1,,,13.707054,100.593744
ไอดีโอ ท่าพระ อินเตอร์เชนจ์,2890000,,28,,,1,1,,,13.728973,100.475815
ฟิวส์ สาทร - ตากสิน,4470000,,35,,,1,1,,,13.720432,100.496983
ซีนิธ เพลส สุขุมวิท 42,4500000,,43,,,1,1,,,13.716139,100.586119
,25780000,120000,287,,,3,3,,,13.735154,100.553447
,4400000,15000,35,,,1,1,,,13.786325,100.573246
,9000000,,35,,,1,1,,,13.738779,100.561802
ไอดีโอ สาทร-ท่าพระ,2234042,10000,22,,,,1,,,13.717258,100.482319
ไลฟ์ แอท ลาดพร้าว 18,7000000,33000,70,,,2,2,,,13.807363,100.570213
แอชตัน อโศก,7600000,,31,,,1,1,,,13.738898,100.5609
The Room สาทร-ตากสิน,9050000,,50,,,1,1,,,13.717746,100.483477
แอสปาย สุขุมวิท 48,3650000,16000,32,,,1,1,,,13.71118,100.593972
,5640000,,35,,,1,1,,,13.795858,100.550205
แอชตัน อโศก,9060000,,35,,,1,1,,,13.738898,100.5609
แชปเตอร์วัน อีโค รัชดา - ห้วยขวาง,2560000,,27,,,1,1,,,13.838641,100.574456
แอชตัน อโศก,7720000,,31,,,1,1,,,13.738898,100.5609
พาร์ค 24 เฟส 1,6190000,,32,,,1,1,,,13.725512,100.566204
ชาโตว์ อินทาวน์ พหลโยธิน 32,2300000,,30,,,1,1,,,13.834685,100.579417
วิลล่าอโศก,5500000,20000,40,,,1,1,,,13.748849,100.561572
นารา ไนน์,5800000,25000,39,,,1,1,,,13.71782,100.532711
อีควิน๊อกซ์ พหล-วิภา,8720000,,63,,,2,2,,,13.809454,100.55895
ชีวาทัย เรสซิเดนซ์ อโศก,5750000,,29,,,1,1,,,13.753899,100.564346
เมซองเดอวิลล์,2900000,,50,,,1,1,,,13.792032,100.547813
เอลลิโอ เดล เรย์ สุขุมวิท 64,3400000,,34,,,1,1,,,13.684212,100.604489
,3730000,,38,,,1,1,,,13.754985,100.575145
,3500000,,32,,,1,1,,,13.782708,100.541471
,7300000,18000,46,,,1,1,,,13.727747,100.535872
,5300000,,39,,,1,1,,,13.809454,100.55895
ลุมพินี พาร์ค ริเวอร์ไซด์ พระราม 3	,4150000,20000,32,,,1,1,,,13.679026,100.527594
เดอะ ไลน์ ราชเทวี,20230000,,80,,,2,2,,,13.752446,100.533475
,8250000,,58,,,2,1,,,13.754357,100.563878
ริทึ่ม อโศก 2,5860000,21000,28,,,1,1,,,13.75391,100.564837
ศุภาลัย ปาร์ค เอกมัย-ทองหล่อ,6400000,,72,,,2,1,,,13.742941,100.58898
บ้านสาทร เจ้าพระยา,5900000,,55,,,1,1,,,13.718971,100.509141
,11500000,45000,80,,,2,2,,,13.725069,100.564216
ศาลาแดง วัน,16100000,,55,,,1,1,,,13.726661,100.541131
,6920000,,61,,,2,2,,,13.804437,100.576231
,4800000,18000,52,,,1,1,,,13.707177,100.585732
,8200000,,57,,,1,1,,,13.743554,100.544958
ริทึ่ม รางน้ำ,5150000,,28,,,1,1,,,13.761155,100.536971
เออร์บาโน่ แอบโซลูท สาทร-ตากสิน,4790000,,38,,,1,1,,,13.721125,100.507202
ไลฟ์ อโศก,5270000,,35,,,1,1,,,13.750283,100.564773
,29750000,,350,,,3,3,1,4,,
The Room สาทร,9800000,,47,,,1,1,,,13.722459,100.523549
เดอะทรี อินเตอร์เชนจ์,2130000,,23,,,1,1,,,13.805573,100.525556
เดอะ ซี้ด เมมโมรี่ สยาม,9790000,25000,46,,,1,1,,,13.747857,100.528447
เดอะ ดิโพลแมท สาทร,17750000,,77,,,2,2,,,13.719796,100.522059
บียอนด์สุขุมวิท,2400000,9000,25,,,1,1,1,1,13.67656,100.603448
ศุภาลัย ปาร์ค อโศก-รัชดา,3000000,12000,34,,,,1,,,13.756092,100.560767
ริทึ่ม สาทร,9360000,45000,61,,,2,2,,,13.718825,100.532778
โหมด สุขุมวิท 61,9500000,45000,54,,,1,1,,,13.72271,100.582783
โนเบิล รีวอลฟ์ รัชดา,3520000,,25,,,1,1,,,13.763691,100.569463
ริทึ่ม อโศก 2,4760000,,28,,,1,1,,,13.75391,100.564837
,3680000,16000,36,,,1,1,,,13.790921,100.574658
เดอะ บางกอก นราธิวาสราชนครินทร์,13900000,,150,,,3,3,,,13.708602,100.533162
บ้านกลางกรุง สยาม-ปทุมวัน,7597000,25000,55,,,1,1,,,13.751836,100.531988
ไอวี่ ริเวอร์ ราษฎร์บูรณะ ,9200000,35000,104,,18,2,2,1,3,13.687723,100.492142
,16170000,,60,,,2,2,,,13.731096,100.531012
,4360000,,32,,,1,1,,,13.754357,100.563878
ไอดีโอโมบิ วงศ์สว่าง-อินเตอร์เชนจ์,3610000,,30,,,1,1,,,13.818953,100.532139
,5670000,,37,,,1,1,,,13.751983,100.534693
เดอะ เทอร์ตี้ไนน์ ,32600000,120000,107,,,2,2,,,13.73221,100.570896
,7450000,,58,,,2,1,,,13.754357,100.563878
ไลฟ์ สุขุมวิท 48,1,22500,33,,,1,1,,,13.711512,100.594775
ไอวี่ ริเวอร์ ราษฎร์บูรณะ ,2200000,,30,,,1,1,,,13.688184,100.492293
ไลฟ์ อโศก,4000000,,29,,,1,1,,,13.750283,100.564773
,3940000,,40,,,1,1,,,13.804437,100.576231
ริทึ่ม อโศก 2,4500000,,28,,,1,1,,,13.75391,100.564837
แอชตัน จุฬา-สีลม,7630000,,35,,,1,1,,,13.731096,100.531012
ฟิวส์ จันทน์-สาทร,2340000,,26,,,1,1,,,13.705683,100.530433
เซ็นต์หลุยส์แกรนด์เทอเรส,4230000,,48,,,1,1,,,13.719357,100.526687
ริทึ่ม รางน้ำ,5780000,,28,,,1,1,,,13.761155,100.536971
บลอคส์ 77,3700000,,40,,,1,1,,,13.710381,100.601693
เอดจ์ สุขุมวิท 23,7370000,,33,,,1,1,,,13.736521,100.563365
,4100000,,26,,,1,1,,,13.790398,100.545904
ไอดีโอเวิร์ฟ,10000000,39000,72,,,2,2,,,13.754496,100.54253
ชีวาทัย ราชปรารภ,5500000,,52,,,2,1,,,13.76182,100.542531
วิลล่า สาทร,12000000,,106,,,3,3,,,13.721234,100.504148
โนเบิลเฮ้าส์ พญาไท,5150000,,45,,,1,1,,,13.759012,100.535288
,3090000,,40,,,1,,,,13.777745,100.538475
ไอดีโอ สาทร-ท่าพระ,2880000,,22,,,1,1,,,13.717258,100.482319
คิว สุขุมวิท (Back up),27810000,,95,,,2,2,,,13.740318,100.555334
ไอดีโอ คิว สยาม - ราชเทวี,6910000,,34,,,1,1,,,13.75301,100.533877
เดอะ มาร์ค รัชดา-แอร์พอร์ตลิงค์,4750000,,60,,,,,,,13.754272,100.560988
คาซ่า คอนโด อโศก-ดินแดง ,2880000,,30,,,1,1,,,13.760815,100.555733
,6590000,,34,,,1,1,,,13.75301,100.533877
อีควิน๊อกซ์ พหล-วิภา,29800000,,202,,,3,4,,,13.809275,100.559269
,2970000,,30,,,1,1,,,13.740556,100.60006
คิวเฮ้าส์คอนโด สุขุมวิท 79,5540000,20000,30,,,1,1,,,13.707504,100.600429
ดิ เอส อโศก,8050000,,37,,,1,1,,,13.743168,100.561734
ไอดีโอ คิว จุฬา-สามย่าน,5800000,,24,,,,1,,,13.733349,100.527144
พญาไทเพลส,6590000,23000,56,,,1,1,,,13.758526,100.533874
เดอะ ไลน์ จตุจักร-หมอชิต,5360000,18000,26,,,,1,,,13.806244,100.556048
เออร์บิเทีย ทองหล่อ,4840000,,28,,,,1,,,13.722645,100.57687
ไอดีโอ คิว จุฬา-สามย่าน,5037000,,26,,,1,1,,,13.733349,100.527144
,5325000,32000,73,,,2,2,,,13.74306,100.57351
,7940000,,44,,,1,1,,,13.790049,100.547449
ไอดีโอ โมบิ อโศก,6290000,,33,,,1,1,,,13.748426,100.565972
โนเบิล บี ไนน์ทีน,8180000,,33,,,1,1,,,13.74228,100.559167
เอดจ์ สุขุมวิท 23,8150000,,41,,,1,1,,,13.736521,100.563365
ไอดีโอโมบิ วงศ์สว่าง-อินเตอร์เชนจ์,2950000,,22,,,1,1,,,13.818953,100.532139
,7430000,,71,,,2,2,,,13.730482,100.575624
,5970000,,43,,,1,1,,,13.791457,100.548475
ดิ แอดเดรส สาทร,9580000,37000,56,,,1,1,,,13.722747,100.52563
ไฮฟ์ สาทร,8300000,35000,70,,,2,2,,,13.721524,100.502324
เซอร์เคิล สุขุมวิท 11,7290000,,47,,,1,1,,,13.749738,100.556046
แอสปาย สาทร-ท่าพระ,2970000,,31,,,1,1,,,13.715635,100.479962
แอสปาย พระราม9,4150000,,38,,,1,1,,,13.754805,100.566923
,13400000,55000,223,,,3,3,,,13.72113,100.565499
แมกโนเลียส์ วอเตอร์ฟรอนท์ เรสซิเดนซ์ ณ ไอคอนสยาม,39500000,,144,,,3,3,,,13.727956,100.511167
เดอะ ริเวอร์,13800000,,69,,,1,1,,,13.721558,100.510307
เดอะทรัสต์ เรสซิเด้นซ์ รัชดา-พระราม 3,2450000,,28,,,1,1,,,13.694152,100.536283
,2980000,,30,,,1,1,,,13.709852,100.479507
เดอะ เพรสซิเด้นท์ สาทร-ราชพฤกษ์ 1,4470000,,50,,,2,1,,,13.72043,100.458841
เซ็นทริค รัชดา-สุทธิสาร,3830000,,31,,,1,1,,,13.789912,100.573599
,6920000,35000,98,,,2,2,,,13.74306,100.57351
,3800000,,32,,,,1,,,13.754357,100.563878
มาเอสโตร 03 รัชดา - พระราม 9,4140000,,29,,,1,1,,,13.76283,100.564577
แชปเตอร์วัน อีโค รัชดา - ห้วยขวาง,5590000,,46,,,2,1,,,13.772054,100.579979
เดอะไพร์ม สุขุมวิท 11,13500000,42000,90,,,1,2,,,13.744096,100.556501
ลุมพินี วิลล์ พัฒนาการ-เพชรบุรีตัดใหม่,1400000,,23,,,,,,,13.73569,100.61717
,6390000,,33,,,1,1,,,13.751983,100.534693
The Room สาทร,10510000,35000,47,,,1,1,,,13.722459,100.523549
ไอดีโอ โมบิ สุขุมวิท,4750000,,31,,,1,1,,,13.704024,100.602008
333 ริเวอร์ไซด์,6400000,,46,,,1,1,,,13.806523,100.51946
,2540000,,30,,,1,1,,,13.716547,100.600686
ไลฟ์ สุขุมวิท 48,3660000,,33,,,1,1,,,13.711512,100.594775
ไอดีโอ คิว สยาม - ราชเทวี,10200000,,51,,,1,1,,,13.75301,100.533877
เดอะ คีย์ สาทร-ราชพฤกษ์,2550000,,30,,,1,1,,,13.712998,100.465803
เดอะ เทมโป แกรนด์ สาทร-วุฒากาศ,3711340,,35,,,1,1,,,13.712604,100.467943
เออร์บาโน่ แอบโซลูท สาทร-ตากสิน,3940000,,30,,,,1,,,13.721125,100.507202
แอสปาย พระราม9,7600000,,66,,,2,2,,,13.754805,100.566923
นายน์ บาย แสนสิริ,6500000,25000,46,,,1,1,,,13.721807,100.497809
ไฮฟ์ ตากสิน,3510000,,31,,,1,1,,,13.721894,100.496529
เอดจ์ สุขุมวิท 23,9300000,,43,,,1,1,,,13.736521,100.563365
ไอดีโอ คิว สยาม - ราชเทวี,6800000,,34,,,1,1,,,13.75301,100.533877
ไลฟ์ อโศก,5360000,,34,,,1,1,,,13.750283,100.564773
มารุ เอกมัย 2,5150000,,30,,,1,1,,,13.72461,100.584823
คิวเฮ้าส์ คอนโด สาทร ,7450000,,57,,,2,2,,,13.72129,100.501253
,5870000,,35,,,1,1,,,13.795858,100.550205
ไอดีโอ คิว จุฬา-สามย่าน,5037000,,26,,,1,1,,,13.733349,100.527144
เอเทรี่ยม พหลโยธิน-สุทธิสาร,2450000,,31,,,1,1,,,13.787787,100.552763
,3190000,,42,,,1,1,,,13.803648,100.577779
ไลฟ์ อโศก,5160000,,35,,,1,1,,,13.750283,100.564773
ไลฟ์ อโศก,4965000,,35,,,1,1,,,13.750283,100.564773
ไอดีโอ โมบิ สุขุมวิท,3300000,13000,21,,,1,1,,,13.704024,100.602008
ไอดีโอ โมบิ สุขุมวิท 66,13800000,,80,,,2,2,,,13.681605,100.609846
ไลฟ์ อโศก-พระราม 9 ,3750000,,28,,,,1,,,13.754357,100.563878
ดิ แอดเดรส อโศก,14000000,53000,75,,,2,2,,,13.749514,100.561981
ไอดีโอ คิว สยาม - ราชเทวี,6560000,,34,,,1,1,,,13.75301,100.533877
,5860000,25000,40,,,1,1,,,13.730928,100.58638
พี เอ็ม ริเวอร์ไซด์,22000000,,276,,,3,4,,,13.674483,100.546715
เดอะ เบส พาร์คเวสต์ - สุขุมวิท 77,3730000,,27,,,1,1,,,13.712959,100.600039
ไอดีโอ สุขุมวิท 93,4350000,,34,,,1,1,,,13.698563,100.604805
คิวเฮ้าส์ คอนโด สาทร ,12000000,38000,85,,,2,2,,,13.72129,100.501253
แอชตัน สีลม,10804000,,36,,,1,1,,,13.726391,100.526828
,9500000,,46,,,1,1,,,13.740361,100.557288
,8500000,35000,45,,,1,1,,,13.740361,100.557288
ควอด สาทร,3360000,15000,28,,,1,1,,,13.717384,100.530653
เดอะ รูม สาทร-เซนต์หลุยส์,4941000,25000,35,,,1,1,,,13.707455,100.526693
,2300000,,26,,,1,1,,,13.740556,100.60006
,5220000,,36,,,1,1,,,13.75598,100.568231
แอชตัน อโศก,9400000,,34,,,1,1,,,13.738898,100.5609
ดิ แอดเดรส อโศก,7450000,,45,,,1,1,,,13.749514,100.561981
,2700000,,35,,,,1,,,13.711298,100.479447
,5480000,,35,,,1,1,,,13.75598,100.568231
,6800000,28000,50,,,2,1,,,13.713486,100.600417
ไลฟ์ อโศก,3900000,,29,,,1,1,,,13.750283,100.564773
โนเบิล รีวอลฟ์ รัชดา,3700000,,25,,,1,1,,,13.763691,100.569463
ดี.เอส. ทาวเวอร์ 2,9850000,38000,123,,,3,3,,,13.740611,100.570977
ทรี คอนโด สุขุมวิท 42,4580000,22000,46,,,1,1,,,13.715089,100.588014
ไนท์บริดจ์ ไพร์ม สาทร,6685000,,44,,,1,1,,,13.716801,100.533128
ริทึ่ม รัชดา,5000000,20000,46,,,1,1,,,13.798751,100.575843
ริทึ่ม รัชดา-ห้วยขวาง,8940000,,61,,,2,2,,,13.77788,100.573958
เดอะรีเซิร์ฟ เกษมสันต์ 3,8200000,35000,39,,,1,1,,,13.749074,100.527364
เซนส์ พหลโยธิน,3500000,,35,,,1,1,,,13.789005,100.552243
ศุภาลัย เวลลิงตัน 2,3600000,,42,,,1,1,,,13.767032,100.578865
คอนโด เลต มิสท์ พระราม 9,4540000,16000,28,,,1,1,,,13.755821,100.566363
สิริ แอท สุขุมวิท,12800000,40000,68,,,2,2,,,13.722573,100.580227
คอนโดเลต ไอซ์ ราชเทวี,5160000,,31,,,1,1,,,13.753338,100.530981
เลอ เซแลส พระราม9 ศรีนครินทร์,10290000,40000,176,,,4,4,,,13.748362,100.645626
,6020000,,36,,,1,1,,,13.75598,100.568231
,10300000,35000,45,,,1,1,,,13.741965,100.544311
,8500000,35000,122,,,2,2,,,13.725548,100.581879
,2260000,,29,,,1,1,,,13.71246,100.595447
ริทึ่ม รางน้ำ,6950000,,35,,,1,1,,,13.761155,100.536971
เดอะ รูม สาทร-เซนต์หลุยส์,5270000,26000,35,,,1,1,,,13.707455,100.526693
เออร์บาโน่ แอบโซลูท สาทร-ตากสิน,7600000,,75,,,2,2,,,13.721125,100.507202
,3180000,,28,,,1,1,,,13.713712,100.478352
,3820000,,35,,,1,1,,,13.740556,100.60006
วิสซ์ดอม อเวนิว รัชดา-ลาดพร้าว,2690000,,23,,,,1,,,13.713712,100.478352
ดิ แอดเดรส อโศก,7350000,26000,45,,,1,1,,,13.749514,100.561981
,10850000,45000,52,,,1,1,,,13.743606,100.561252
ชีวาทัย เรสซิเดนซ์ อโศก,5735000,,35,,,1,1,,,,
เดอะ เทมโป แกรนด์ สาทร-วุฒากาศ,2950000,,30,,,1,1,,,13.712604,100.467943
ชีวาทัย เรสซิเดนซ์ อโศก,5047000,,28,,,1,1,,,13.753899,100.564346
ริทึ่ม สุขุมวิท 44/1,5550000,,35,,,1,1,,,13.715212,100.590594
วอร์เตอร์มาร์ค เจ้าพระยา ริเวอร์,13300000,,105,,,2,2,,,13.710535,100.500849
วิสซ์ดอม อเวนิว รัชดา-ลาดพร้าว,13500000,,89,,,2,2,,,13.80522,100.574214
พาร์ค 24 เฟส 1,8250000,,29,,,1,1,,,13.725512,100.566204
ไอดีโอบลูโคฟ สุขุมวิท ,4460000,14000,35,,,1,1,,,13.678554,100.608607
เดอะ ไลน์ จตุจักร-หมอชิต,5320000,,26,,,1,1,,,13.806244,100.556048
เอ สเปซ ไอดี อโศก-รัชดา,4400000,,34,,,1,1,,,13.756804,100.560239
เดอะ แฮบบิแทท,30000000,75000,340,,,3,3,,,13.733234,100.578052
ไอดีโอเวิร์ฟ,4790000,20000,35,,,1,1,,,13.754496,100.54253
ลุมพินี วิลล์ สุขุมวิท 77(2),3700000,,60,,,2,2,,,13.712272,100.607013
ศุภาลัย ริวา แกรนด์,6500000,,62,,,1,1,,,13.677844,100.547267
เดอะ สเตจ เตาปูน-อินเตอร์เชนจ์,2600000,,26,,,1,1,,,13.806258,100.526553
,7220000,,30,,,1,1,,,13.722468,100.58455
ศุภาลัย ริเวอร์ เพลส,6600000,,78,,,2,2,,,13.710744,100.502763
,5300000,,48,,,1,1,,,13.729919,100.5075
ไซมิส จอยญ่า,6500000,,49,,,1,1,,,13.742912,100.570998
บลอคส์ 77,7200000,,62,,,2,2,,,13.710381,100.601693
เดอะมาสเตอร์เซ็นเธรี่ยม,20220000,70000,162,,,2,3,,,13.740881,100.561222
โนเบิล รีโว สีลม,9100000,,66,,,2,2,,,13.719509,100.519492
เดอะ เครสท์ สุขุมวิท 24,11500000,,,,,2,1,1,3,13.7295,100.566173
เออร์บาโน่ แอบโซลูท สาทร-ตากสิน,3940000,,30,,,,1,,,13.721125,100.507202
ไอดีโอ ท่าพระ อินเตอร์เชนจ์,2710000,,28,,15,1,1,1,1,13.728987,100.475795
คอนโดเลต พิกเซล สาทร,3300000,,23,,,1,1,,,13.718225,100.549333
เซ็นทริค รัชดา-สุทธิสาร,3780000,15000,31,,,1,1,,,13.789912,100.573599
เอ็ม จตุจักร,4635000,,32,,,1,1,,,13.797477,100.55176
,3390000,,25,,,,1,,,13.695377,100.605772
เมโทรลักซ์ พหลโยธิน-สุทธิสาร,2710000,,28,,,1,1,,,13.788933,100.557591
เดอะ เพรสซิเด้นท์ สาทร-ราชพฤกษ์ 1,4740000,,50,,,2,1,,,13.72043,100.458841
โนเบิล รีวอลฟ์ รัชดา 2,3690000,,25,,,1,1,,,13.763628,100.569442
บ้านสวนเพชร,39600000,75000,266,,,4,4,,,13.731711,100.571119
,5450000,,38,,,1,1,,,13.695377,100.605772
อมันตา รัชดา,7800000,35000,84,,,2,2,,,13.765215,100.567935
15 สุขุมวิท เรสซิเดนซ์,7450000,32000,59,,,1,1,,,13.742115,100.558557
นารา ไนน์,6420000,26000,39,,,1,1,,,13.71782,100.532711
ไลฟ์ แอท ลาดพร้าว 18,4260000,,40,,,1,1,,,13.807363,100.570213
,3599000,,37,,,1,1,,,13.684963,100.604501
ไลฟ์ แอท พหล-อารีย์,2500000,45000,31,,,1,1,,,13.796934,100.552759
,20080000,,81,,,2,2,,,13.743554,100.544958
เดอะ เนสท์ เพลินจิต,6390000,,43,,,1,1,,,13.74633,100.549386
,6810000,,34,,,1,1,,,13.743472,100.554339
,7300000,18000,46,,,1,1,,,13.727747,100.535872
,46130000,,271,,,3,,,,13.717185,100.546368
ไอดีโอ โมบิ อโศก,6180000,,35,,,1,1,,,13.748426,100.565972
เอลลิโอ คอนโด สุขุมวิท 64,2130000,,30,,,1,1,,,13.684062,100.603963
ไอดีโอ คิว ราชเทวี,10250000,,48,,,2,1,,,13.75282,100.533865
ไอดีโอ โมบิ สุขุมวิท 66,7980000,35000,61,,,2,2,,,13.681605,100.609846
ดิ แอดเดรส สาทร,15960000,58000,76,,,2,2,,,13.722747,100.52563
เดอะ ไลท์เฮ้าส์ สาทร-เจริญนคร,5680000,28000,48,,,1,1,,,13.7224,100.508352
,12000000,,44,,,1,1,,,13.735696,100.573042
,4000000,,32,,,1,1,,,,
แอสปาย รัชดา–วงศ์สว่าง,2350000,,26,,,1,1,,,13.830736,100.525306
ไอดีโอ สาทร-ตากสิน,4370000,,36,,,1,1,,,13.720185,100.502037
ไลฟ์ แอท รัชดา-ห้วยขวาง,4800000,,46,,,1,1,,,13.778809,100.574207
ริทึ่ม อโศก 2,4990000,,30,,,1,1,,,13.75391,100.564837
ไอดีโอ สุขุมวิท 93,3080000,,26,,,1,1,,,13.698563,100.604805
ไลฟ์ อโศก,4520000,,28,,,,1,,,13.754357,100.563878
พาร์ค เอ็กซ์โซ พลัส เกษตร-นวมินทร์,3990000,,66,,,2,2,2,1,13.811475,100.66673
บีทีเอส เรสซิเด้นซ์,2390000,,33,,,1,1,1,1,13.797031,100.558138
,5141000,,29,,,1,1,,,,
ไลฟ์ อโศก,4450000,,29,,,1,1,,,13.750283,100.564773
ไลฟ์ อโศก-พระราม 9 ,4240000,,32,,,1,1,,,13.754357,100.563878
ไอดีโอ โมบิ อโศก,6090000,,33,,,1,1,,,13.748426,100.565972
เดอะ เซนต์ เรสิเดนเซส ,4056000,,35,,,1,1,,,,
แอชตัน สีลม,24350000,,87,,,2,2,,,13.726391,100.526828
ริทึ่ม รัชดา,4100000,,36,,,1,1,,,13.798751,100.575843
ไอดีโอ โมบิ พระราม 9,6600000,,46,,,2,1,,,13.755643,100.565972
ควอด สีลม,8730000,30000,46,,,1,1,,,13.724,100.530389
,2890000,15000,31,,,1,1,,,13.753416,100.576341
แอสปาย สุขุมวิท 48,5520000,25000,54,,,2,2,,,13.71118,100.593972
,10250000,,49,,,2,2,,,13.75282,100.533865
ไอดีโอ ท่าพระ อินเตอร์เชนจ์,2890000,,28,,,1,1,,,13.728973,100.475815
เดอะ ริเวอร์,9100000,35000,69,,,1,1,,,13.721558,100.510307
,5900000,25000,40,,,1,1,,,13.735563,100.58139
ริทึ่ม อโศก,7000000,26000,47,,,2,2,,,13.754267,100.564468
,5819500,,48,,,1,1,,,13.818025,100.564932
เดอะ คีย์ สาทร-เจริญราษฎร์,4050000,,35,,,1,1,,,13.701033,100.516013
,3660000,,23,,,1,1,,,,
ไอดีโอ ลาดพร้าว 5,3290000,13000,33,,,1,1,,,13.810582,100.565777
แอชตัน สีลม,14700000,,50,,,1,1,,,13.726391,100.526828
ไซมิส จอยญ่า,5110000,27000,42,,,1,1,,,13.742912,100.570998
เดอะ ไลน์ ราชเทวี,7200000,,35,,,1,1,,,13.752446,100.533475
ลุมพินีเพลส พระราม 3-ริเวอร์ไรน์,3600000,,35,,,2,1,,,13.675132,100.539449
เดอะ ลุมพินี 24,7600000,40000,38,,,1,1,,,13.722535,100.566242
,12300000,,50,,,1,1,,,13.722079,100.55337
แอสปาย พระราม9,4158000,,39,,,1,1,,,13.754805,100.566923
,2500000,,40,,,1,1,1,1,,
,6155000,,30,,,,1,,,13.722468,100.58455
ดิ แอดเดรส อโศก,5616000,30000,35,,,1,1,,,13.749514,100.561981
ไอดีโอ รัชดา-ห้วยขวาง,5000000,,47,,,1,1,,,13.778353,100.57407
เดอะ ไลน์ ราชเทวี,6490000,,28,,,,1,,,13.752446,100.533475
เดอะ ไลน์ สุขุมวิท 71,5400000,,31,,,1,1,,,13.715203,100.594754
พาร์ค 24 เฟส 1,12890000,,53,,,2,2,,,13.725512,100.566204
,5500000,20000,28,,,1,1,,,13.75391,100.564837
เดอะ เซนต์ เรสิเดนเซส ,2940000,,30,,,1,1,,,13.811758,100.560022
โนเบิล รีโคล สุขุมวิท 19,7680000,,35,,,1,1,,,13.742184,100.559938
,8020000,,58,,,2,2,,,13.754357,100.563878
โนเบิล รีวอลฟ์ รัชดา,7770000,,51,,,2,2,,,13.763691,100.569463
เดอะ แบงค็อค สาทร,31800000,,121,,,2,2,,,13.71916,100.52069
เวีย 31,6850000,32000,47,,,1,1,,,13.739322,100.568387
คิวเฮ้าส์ คอนโด สาทร ,5300000,,47,,,1,1,,,13.72129,100.501253
,8030000,,67,,,1,1,,,13.798751,100.575843
,18500000,80000,100,,,2,3,,,13.723244,100.568565
โนเบิล รีโคล สุขุมวิท 19,7000000,,35,,,1,1,,,13.742184,100.559938
ไอดีล 24 สุขุมวิท 24 ,35970000,,327,,,4,4,,,13.723604,100.566878
แอสปาย สาทร-ท่าพระ,3400000,,31,,,1,1,,,13.715965,100.479842
,8300000,38000,71,,,2,2,,,13.734664,100.584833
เดอะ เครสท์ สุขุมวิท 34,27630000,,126,,,2,3,,,13.725295,100.576498
ริชพาร์ค 2,2890000,,30,,,1,1,1,1,13.806228,100.528941
เดอะ เซนต์ เรสิเดนเซส ,3608000,,36,,,1,1,,,13.811758,100.560022
The Room BTS วงเวียนใหญ่,8000000,,48,,,1,1,,,13.720407,100.495009
ออนิกซ์ พหลโยธิน,3920000,15000,27,,,1,1,,,13.791457,100.548475
,4890000,,30,,,,1,,,13.790049,100.547449
เดอะ เซนต์ เรสิเดนเซส ,3900000,,30,,,1,1,,,,
ไอดีโอ โมบิ สุขุมวิท 66,8530000,,53,,,1,1,,,13.681605,100.609846
,399990,,24,,,1,1,1,,13.868446,100.656152
แอชตัน อโศก,8220000,,34,,,1,1,,,13.738898,100.5609
แอสปาย พระราม 4,5000000,,56,,,2,2,,,13.712091,100.584143
เมโทร ลักซ์ รัชดา,3450000,,28,,,1,1,,,,
ลุมพินี วิลล์ ลาซาล-แบริ่ง,1400000,,26,,,1,1,1,1,13.661105,100.624034
แชปเตอร์วัน มิดทาวน์ ลาดพร้าว 24,5830000,20000,39,,,1,1,,,13.806471,100.572747
ศุภาลัยไลท์ สาทร-เจริญราษฎร์,4640000,,54,,,1,1,,,13.701721,100.516619
,2800000,,28,,,1,1,,,,
เมโทร ปาร์ค สาทร,2340000,,30,,,1,1,,,13.709118,100.451345
เดอะ สกาย สุขุมวิท,5200000,20000,35,,,1,1,,,13.674922,100.611092
ไลฟ์ อโศก-พระราม 9 ,6320000,,45,,,2,1,,,13.754357,100.563878
คาซ่า คอนโด รัชดา-ท่าพระ ,2770000,13000,35,,,1,1,,,13.713789,100.477098
พาร์ค 24 เฟส 1,6250000,,28,,,1,1,,,13.725512,100.566204
เซ็นทริค ซีน พหลโยธิน 9,5300000,18000,56,,,1,1,,,13.785947,100.546182
เซ็นทริค ห้วยขวาง สเตชั่น,3590000,,26,,,1,1,,,13.780297,100.573986
,40690000,,111,,,2,2,,,13.733247,100.582097
ซีล บาย แสนสิริ,5000000,25000,47,,,1,1,,,13.730372,100.587924
,2650000,,35,,,,1,,,13.711298,100.479447
ไลฟ์ อโศก,3920000,,29,,,1,1,,,13.750283,100.564773
,7080000,,37,,,1,1,,,13.75301,100.533877
แอสปาย รัชดา–วงศ์สว่าง,2480000,,26,,,1,1,,,13.830736,100.525306
ไลฟ์ แอท ลาดพร้าว 18,4000000,17000,40,,,1,1,,,13.807363,100.570213
,3400000,,40,,,1,1,,,13.803648,100.577779
,16800000,70000,77,,,2,2,,,13.731693,100.570747
นิช ไพรด์ ทองหล่อ-เพชรบุรี,6400000,,59,,,2,2,,,13.744899,100.583468
,34000000,,162,,,3,3,,,13.723244,100.568565
,5500000,30000,95,,,2,2,,,13.699728,100.537118
,7000000,28000,29,,,1,1,,,13.725512,100.566204
ไดมอนด์ รัชดา คอนโดมิเนียม,3940000,15000,35,,,1,1,,,13.774692,100.573953
,15900000,,62,,,2,2,,,13.742184,100.559938
แอชตัน สีลม,21977000,,76,,,2,2,2,,13.726014,100.526999
เดอะ นายน์ เพลส,2660000,,40,,,1,1,,,13.653346,100.6107
,5510000,,48,,,1,1,,,13.729919,100.5075
วินด์ รัชโยธิน ,6920000,25000,56,,,1,1,,,13.828605,100.566228
ไลฟ์ อโศก,7250000,,55,,,2,2,,,13.750283,100.564773
,3410000,,30,,,1,1,,,13.729172,100.593485
เดอะรีเซิร์ฟ เกษมสันต์ 3,7000000,25000,38,,,1,1,,,13.749074,100.527364
คาซ่า คอนโด รัชดา-ราชพฤกษ์ ,3730000,,35,,,1,1,,,13.713727,100.476237
The Room พระราม 4,7400000,35000,45,,,1,1,,,13.736319,100.52076
เซ็นทริค ห้วยขวาง สเตชั่น,6900000,,48,,,2,1,,,13.780297,100.573986
ศุภาลัย ริเวอร์ รีสอร์ท,6390000,26000,53,,,1,1,,,13.708888,100.495038
วินเซนเต้ สุขุมวิท 49,7350000,35000,67,,,1,1,,,13.737419,100.574615
The Room สุขุมวิท 79,5670000,24000,58,,,2,1,,,13.707963,100.601566
ดิ เอดิเตอร์ สะพายควาย,6000000,,37,,,1,1,,,13.794136,100.549538
ไนท์บริดจ์ ไพร์ม สาทร,5270000,,37,,,1,1,,,13.716801,100.533128
แอสปาย สุขุมวิท 48,4470000,22000,38,,,1,,,,13.71118,100.593972
,12000000,55000,75,,,1,1,,,13.723244,100.568565
อกัสตัน สุขุมวิท 22,20900000,,156,,,3,3,,,13.725069,100.564216
วิสซ์ดอม สเตชั่น รัชดา-ท่าพระ,3443000,,28,,,1,1,,,13.713712,100.478352
,3330000,,30,,,1,1,,,13.772054,100.579979
ไอดีโอบลูโคฟ สุขุมวิท ,4180000,,36,,,1,1,,,13.678554,100.608607
ลุมพินี พาร์ค ริเวอร์ไซด์ พระราม 3	,4470000,12000,52,,,2,2,,,13.679026,100.527594
,7540000,,35,,,1,1,,,13.731096,100.531012
เลอ โมนาโค เรสซิเด้นท์,55975000,,361,,,4,3,,,13.787488,100.544007
ไอดีโอ โมบิ สุขุมวิท 66,5300000,,35,,,1,1,,,13.681605,100.609846
สายลม คอนโดมิเนียม,4000000,,64,,,1,1,10,2,13.783173,100.546935
,6710000,25000,43,,,1,1,,,13.760067,100.569381
เอ สเปซ อโศก-รัชดา,2130000,9000,31,,,1,1,,,13.75685,100.560255
แอสปาย สาทร-ท่าพระ,3030000,,31,,,1,1,,,13.715635,100.479962
ไอดีโอ โมบิ สุขุมวิท,5200000,,44,,,1,1,,,13.704024,100.602008
แอชตัน สีลม,20950000,,76,,,2,2,,,13.726391,100.526828
ไลฟ์ อโศก,4130000,,29,,,1,1,,,13.750283,100.564773
ริทึ่ม รัชดา,7341000,,52,,,1,1,,,13.798751,100.575843
วิช ซิกเนเจอร์ มิดทาวน์ สยาม,8600000,,47,,,2,1,,,13.751983,100.534693
ริทึ่ม รัชดา,5470000,,47,,,1,1,,,13.798751,100.575843
ไอดีโอ คิว ราชเทวี,6170000,25000,34,,,1,1,,,13.75282,100.533865
The Room เจริญกรุง 30,12770000,60000,54,,,1,1,,,13.728981,100.515637
,5500000,,35,,,1,1,,,13.795858,100.550205
อีควิน๊อกซ์ พหล-วิภา,5200000,,39,,,1,1,,,13.809454,100.55895
แอชตัน อโศก,8340000,,34,,,1,1,,,13.738898,100.5609
มายรีสอร์ท บางกอก,7660000,,72,,,2,1,,,13.748381,100.566619
,3410000,,36,,,1,1,,,13.787787,100.552763
,2400000,,26,,,,1,,,13.740556,100.60006
,9500000,,65,,,2,2,,,13.717856,100.516763
โนเบิล รีโคล สุขุมวิท 19,7250000,,35,,,1,1,,,13.742184,100.559938
แอชตัน อโศก,9200000,,34,,,1,1,,,13.738898,100.5609
สตาร์วิว พระราม 3,9050000,,79,,,2,2,,,13.687433,100.517984
,4380000,19000,35,,,1,1,,,13.744076,100.587201
เซอร์เคิล ลิฟวิ่ง โปรโตไทพ์,10110000,,77,,,2,2,,,13.75008,100.556067
วิสซ์ดอม คอนเนค สุขุมวิท,6400000,,30,,,1,1,,,13.685642,100.610619
ดี 65 คอนโดมิเนียม,5840000,30000,68,,,1,1,,,13.721769,100.58876
ณ วรา เรสซิเดนซ์,11350000,,46,,,1,1,,,13.741869,100.544394
ไฮด์ สุขุมวิท,8570000,,45,,,1,1,,,13.740361,100.557288
ทรี คอนโด สุขุมวิท 42,4580000,22000,46,,,1,1,,,13.715089,100.588014
,28000000,,83,,,2,2,,,13.72974,100.581259
,7200000,,35,,,1,1,,,13.722468,100.58455
เดอะ คีย์ วุฒากาศ ,3620000,,33,,,1,1,,,13.713949,100.468175
คิว หลังสวน,26050000,,106,,,2,2,,,13.739171,100.542975
เดอะ ไลน์ อโศก-รัชดา,5580000,,35,,,1,1,,,13.755979,100.563553
,3450000,,31,,,1,1,,,13.713486,100.600417
ไฮด์ สุขุมวิท,9900000,,48,,,1,1,,,13.740361,100.557288
,3740000,,28,,,,1,,,13.754357,100.563878
ไลฟ์ อโศก,4490000,,29,,,1,1,,,13.750283,100.564773
แอชตัน อโศก,7600000,,31,,,1,1,,,13.738898,100.5609
ไอดีล 24 สุขุมวิท 24 ,52000000,,327,,,4,4,,,13.723604,100.566878
,12380000,,55,,,2,1,,,13.725512,100.566204
ริทึ่ม รัชดา,5500000,19000,46,,,1,1,,,13.798751,100.575843
ไอดีโอ โมบิ สุขุมวิท,9000000,60000,61,,,2,2,,,13.704024,100.602008
เดอะ เนสท์ เพลินจิต,4980000,,43,,,1,1,,,13.74633,100.549386
The Room สาทร-ตากสิน,4300000,22000,47,,,1,1,,,13.717746,100.483477
,4300000,20000,59,,,1,1,,,13.742824,100.55762
,6490000,,94,,,2,2,,,13.699728,100.537118
ริทึ่ม อโศก 2,4520000,,28,,,1,1,,,13.75391,100.564837
,7980000,,120,,,2,2,,,13.697412,100.540629
ไอดีโอ คิว จุฬา-สามย่าน,6276000,23000,34,,,1,1,,,13.733349,100.527144
,4590000,,36,,,1,1,,,13.75598,100.568231
,14900000,,88,,,2,2,,,13.747592,100.528244
,4000000,,33,,,1,1,,,13.789345,100.563723
ไอดีโอ รัชดา-ห้วยขวาง,4530000,18000,35,,,1,1,,,13.778353,100.57407
ควินน์ คอนโด รัชดา17,6390000,,48,,,1,1,,,13.786325,100.573246
อีควิน๊อกซ์ พหล-วิภา,5300000,,39,,,1,1,,,13.809454,100.55895
แอชตัน อโศก,9130000,,34,,,1,1,,,13.738898,100.5609
เดอะ ลุมพินี 24,5350000,,26,,,1,1,,,13.722535,100.566242
คอนโดเลต พิกเซล สาทร,5850000,,46,,,2,1,,,13.718225,100.549333
โนเบิล บี ไนน์ทีน,11000000,,45,,,1,1,,,13.74228,100.559167
ริทึ่ม รัชดา-ห้วยขวาง,4700000,18000,36,,,1,1,,,13.77788,100.573958
เดอะ ดิโพลแมท 39,16300000,,60,,,1,1,,,13.731507,100.570729
ริทึ่ม รัชดา,5530000,20000,46,,,1,1,,,13.798751,100.575843
ริทึ่ม อโศก 2,4590000,,28,,,1,1,,,13.75391,100.564837
ศุภาลัย เอลีท สุรวงศ์,7440000,,49,,,1,1,,,13.730578,100.523288
,2400000,15000,30,,,,1,,,13.712968,100.592335
โนเบิล รีโว สีลม,5680000,,34,,,1,1,,,13.719509,100.519492
ไนท์บริดจ์ ไพร์ม สาทร,8020000,,31,,,1,1,,,13.716801,100.533128
เดอะ พาโน,14790000,50000,98,,,2,2,,,13.671397,100.541818
ริเวอร์เฮเว่น คอนโดมิเนียม,10000000,,102,,,2,2,,,13.695135,100.494629
,5000000,,24,,,,1,,,13.721609,100.576892
แอชตัน จุฬา-สีลม,6160000,,31,,,1,1,,,13.731096,100.531012
,13250000,,53,,,2,1,,,13.725512,100.566204
,7200000,,35,,,1,1,,,13.722468,100.58455
ศุภาลัย พรีเมียร์ แอท ราชเทวี,11500000,,105,,,2,2,,,13.75487,100.526029
เดอะ ซี้ด มูซี่,5320000,,33,,,1,1,,,13.725252,100.570963
เอ สเปซ อโศก-รัชดา,2300000,,35,,,1,1,,,13.75685,100.560255
ไซมิส จอยญ่า,8300000,48000,69,,,2,2,,,13.742912,100.570998
แอสปาย พระราม9,4350000,17500,40,,,1,1,,,13.754805,100.566923
ลุมพินี พาร์ค พระราม 9-รัชดา,2790000,,31,,21,1,1,1,2,13.753462,100.5763
ไอดีโอ สุขุมวิท 93,3770000,,25,,,1,1,,,13.698563,100.604805
ริทึ่ม สุขุมวิท 36 – 38,6920000,25000,33,,,1,1,,,13.721609,100.576892
ริทึ่ม อโศก,3500000,,22,,,1,1,,,13.754267,100.564468
ดิ แอดเดรส อโศก,6350000,,45,,,1,1,,,13.749514,100.561981
,3710000,,25,,,1,1,,,13.763628,100.569442
ไลฟ์ สุขุมวิท 48,3200000,,33,,,1,1,,,13.711512,100.594775
,5320000,23000,83,,,2,2,,,13.699728,100.537118
ดิ เอส อโศก,13200000,,48,,,1,1,,,13.743168,100.561734
ดิ แอดเดรส อโศก,6250000,23000,46,,,1,1,,,13.749514,100.561981
เดอะ ริเวอร์,9790000,,68,,,1,1,,,13.721558,100.510307
,6600000,30000,52,,,1,1,,,13.786325,100.573246
ศุภาลัย โอเรียนทัล เพลส,8100000,,103,,,2,2,,,13.719848,100.539891
เดอะ ดิโพลแมท 39,24500000,,83,,,2,2,,,13.731507,100.570729
ศุภาลัย ปาร์ค อโศก-รัชดา,2750000,,34,,,1,1,,,13.756092,100.560767
,4611000,,29,,,1,1,,,,
ไอดีโอ คิว สุขุมวิท 36,13920000,,63,,,2,2,,,13.72076,100.576361
,3640000,,23,,,1,1,,,,
ศุภาลัย พรีเมียร์ @ อโศก,8500000,,80,,,2,2,,,13.744737,100.562745
แอสปาย สุขุมวิท 48,3620000,17000,38,,,1,1,,,13.71118,100.593972
คิว ชิดลม-เพชรบุรี,7150000,,35,,,1,1,,,13.749404,100.543869
,21280000,68000,106,,,2,3,,,13.723244,100.568565
,3000000,,35,,,1,1,,,13.719384,100.458654
ศุภาลัย เอลีท สาทร-สวนพลู,11600000,,87,,,2,2,,,13.721157,100.537437
,8000000,35000,68,,,2,2,,,13.723602,100.526755
ริทึ่ม สุขุมวิท 44/1,8160000,35000,51,,,2,1,,,13.715212,100.590594
ไลฟ์ อโศก,4550000,,29,,,1,1,,,13.750283,100.564773
ไอดีโอ สุขุมวิท 93,3500000,,25,,,,1,,,13.698563,100.604805
,5500000,,75,,,2,2,,,13.737524,100.553199
แอชตัน อโศก,8100000,,35,,,1,1,,,13.738898,100.5609
เดอะ พาร์คแลนด์ แกรนด์ อโศก-เพชรบุรี,4470000,,38,,,1,1,,,13.748641,100.567847
,11500000,42000,80,,,2,2,,,13.748849,100.561572
ริทึ่ม สุขุมวิท 44/1,7520000,,48,,,1,1,,,13.715212,100.590594
,8980000,32000,45,,,1,1,,,13.718089,100.58494
คิว หลังสวน,21190000,,70,,,2,2,,,13.739171,100.542975
วิสซ์ดอม คอนเนค สุขุมวิท,4600000,,29,,,1,1,,,13.685642,100.610619
ไนท์บริดจ์ ไพร์ม สาทร,6640000,,44,,,1,1,,,13.716801,100.533128
วิลล่า ราชเทวี,6000000,25000,41,,,1,1,,,13.754345,100.532544
The Room พระราม 4,7950000,,45,,,1,1,,,13.736319,100.52076
ไลฟ์ อโศก,7650000,39000,55,,,2,2,,,13.750283,100.564773
ริทึ่ม อโศก 2,4690000,,27,,,1,1,,,13.75391,100.564837
แบงค์คอกเฟลิซ สุขุมวิท 69,9900000,,79,,,3,2,,,13.715325,100.592021
แชปเตอร์วัน อีโค รัชดา - ห้วยขวาง,2500000,,23,,,,,1,,13.77212,100.5799
ริทึ่ม สุขุมวิท 44/1,8500000,,52,,,3,2,,,13.715212,100.590594
เดอะ พาโน ริเวอร์ฟรอนท์ ลิฟวิ่ง เซนเซชั่น,14690000,45000,132,,,2,2,,,13.671397,100.541818
ศุภาลัย ปาร์ค ศรีนครินทร์,0,,52,,,,,,,13.628059,100.696859
โนเบิล รีวอลฟ์ รัชดา 2,3690000,,25,,,1,1,,,13.763628,100.569442
เซ็นทริค ห้วยขวาง สเตชั่น,3610000,,26,,,1,1,,,13.780297,100.573986
,4700000,22000,37,,,1,1,,,13.729942,100.572198
โนเบิลเฮ้าส์ พญาไท,7870000,,47,,,1,1,,,13.757169,100.5354
ไอดีโอ วุฒากาศ,3000000,,30,,,1,1,,,13.714664,100.467627
บ้านปทุมวัน,,22000,49,,,2,1,,,13.754696,100.534251
เดอะทรี พริวาต้า,2446000,,27,,,1,1,,,13.80094,100.521037
,3410000,,23,,,,1,,,,
,13600000,60000,112,,,2,2,,,13.730626,100.573124
พรีมีโอ เฟรสโก,2000000,,27,,,1,1,1,1,13.863372,100.61624
แอชตัน อโศก,10825000,,34,,,1,1,,,13.738898,100.5609
,6100000,,52,,,1,1,,,13.729919,100.5075
ไอดีโอ โมบิ สุขุมวิท อีสท์เกต,2350000,,22,,,1,1,1,1,13.665637,100.603751
ไอดีโอ บลูโคฟ สาทร,3500000,15000,35,,,1,1,,,13.721972,100.495807
เอเทรี่ยม พหลโยธิน-สุทธิสาร,2600000,,31,,,1,1,,,13.787787,100.552763
ไอดีโอเวิร์ฟ,7800000,,49,,,2,1,,,13.754496,100.54253
เดอะมาสเตอร์เซ็นเธรี่ยม,11440000,55000,104,,,2,2,,,13.740881,100.561222
เดอะ ซิกเนเจอร์ บาย เออร์บาโน่,10200000,,55,,,2,2,,,13.792876,100.549181
แอชตัน จุฬา-สีลม,5560000,,25,,,,1,,,13.731096,100.531012
,2480000,,25,,,1,1,,,,
วิสซ์ดอม อเวนิว รัชดา-ลาดพร้าว,5350000,,31,,,1,1,,,13.80522,100.574214
ไลฟ์ รัชดาภิเษก,4134000,,39,,,1,1,,,13.790669,100.574196
เดอะ ไลน์ จตุจักร-หมอชิต,4880000,,27,,,1,1,,,13.806244,100.556048
,4300000,,29,,,1,1,,,13.722909,100.576852
ลุมพินี เพลส พระราม 4-กล้วยน้ำไท,3100000,,28,,,1,1,,,13.712813,100.582698
15 สุขุมวิท เรสซิเดนซ์,5280000,25000,35,,,1,1,,,13.742115,100.558557
เอดจ์ สุขุมวิท 23,7000000,,31,,,1,1,,,13.736521,100.563365
,20220000,65000,248,,,3,4,,,13.742239,100.573339
,7260000,33000,34,,,1,1,,,13.741965,100.544311
ยู ดีไลท์ @ จตุจักร สเตชั่น,3200000,,32,,,1,1,,,13.798425,100.556417
วัน คอนโด สุขุมวิท 52,2880000,13000,31,,,1,1,,,13.704006,100.599695
เดอะ คลาสซี่ คอนโด,3400000,,43,,,1,1,1,2,13.801511,100.572201
,7150000,,36,,,1,1,,,13.75598,100.568231
แอ็บสแตร็กส์ สุขุมวิท 66/1,4050000,,46,,,1,1,,,13.679587,100.605677
ไฮด์ สุขุมวิท,22350000,80000,114,,,2,2,,,13.740361,100.557288
คลาส สยาม,12800000,,71,,,2,2,,,13.747592,100.528244
ไซมิส เธอร์ตี้ไนน์,9500000,,76,,,2,2,1,3,13.739067,100.572566
คาซ่า คอนโด อโศก-ดินแดง ,2980000,,30,,,1,1,,,13.760815,100.555733
ทีล สาทร-ตากสิน,5200000,23000,48,,,1,1,,,13.720198,100.492713
,3300000,,26,,,1,1,,,13.75598,100.568231
,15960000,73000,124,,,2,2,,,13.740042,100.580028
คิว คอนโด อโศก ,9350000,35000,45,,,2,1,,,13.748244,100.562727
ไซมิส สุขุมวิท,4300000,,38,,,1,1,,,13.709266,100.599069
แอชตัน อโศก,7600000,,34,,,1,1,,,13.738898,100.5609
ฟิวส์ สาทร - ตากสิน,5319148,,32,,,1,1,,,13.720432,100.496983
ไอดีโอ โมบิ อโศก,6730000,,33,,,1,1,,,13.748426,100.565972
ดิ เอส อโศก,11030000,,48,,,1,1,,,13.743168,100.561734
,32000000,,318,,,3,4,,,13.733624,100.561299
เดอะ เพรสซิเดนท์ สาทร-ราชพฤกษ์ 2,4750000,,50,,,2,1,,,13.719384,100.458654
แชปเตอร์วัน มิดทาวน์ ลาดพร้าว 24,4200000,18000,31,,,1,1,,,13.806471,100.572747
แอสปาย พระราม9,5320000,25000,49,,,2,1,,,13.754805,100.566923
เดอะ ซี้ด เตร์เร รัชโยธิน,4260000,13000,35,,,1,1,,,13.830305,100.569721
คาซ่า คอนโด อโศก-ดินแดง ,2970000,12000,30,,,1,1,,,13.760815,100.555733
,4250000,,29,,,1,1,,,13.750283,100.564773
แอชตัน จุฬา-สีลม,12620000,,55,,,2,2,,,13.731096,100.531012
ไนท์บริดจ์ ไพร์ม สาทร,5070000,,37,,,1,1,,,13.716801,100.533128
,6330000,,35,,,1,1,,,13.755979,100.563553
,10640000,,109,,,2,2,,,13.720641,100.528207
,8540000,35000,99,,,2,2,,,13.717746,100.483477
เอ็ม จตุจักร,4635000,,32,,,1,1,,,13.797477,100.55176
,6510000,,34,,,1,1,,,13.75301,100.533877
เมย์แฟร์ เพลส สุขุมวิท 50,3750000,,35,,,1,1,,,13.704712,100.594891
เดอะ เซนต์ เรสิเดนเซส ,5670000,,36,,,1,1,,,,
ออนิกซ์ พหลโยธิน,5800000,,40,,,1,1,,,13.791457,100.548475
ดิ เอส อโศก,17730000,,76,,,2,2,,,13.743168,100.561734
,4070000,,26,,,1,1,,,13.795858,100.550205
แบงค์คอกเฟลิซ สุขุมวิท 69,4790000,20000,35,,,1,1,,,13.715325,100.592021
ไลฟ์ สุขุมวิท 48,2884000,,30,,,1,1,,,13.711512,100.594775
,3730000,,48,,,1,1,,,13.771417,100.539397
เดอะ เทอร์ตี้ไนน์ ,22900000,,88,,,2,2,,,13.731693,100.570747
เอลลิโอ เดล เรย์ สุขุมวิท 64,2121000,10000,26,,,,1,,,13.684212,100.604489
ชีวาทัย เรสซิเดนซ์ อโศก,5500000,,37,,,1,1,,,,
ริเวอร์เฮเว่น คอนโดมิเนียม,5200000,,61,,,2,1,,,13.695135,100.494629
ริทึ่ม รัชดา,5750000,20000,46,,,1,1,,,13.798751,100.575843
เดอะ พาโน ริเวอร์ฟรอนท์ ลิฟวิ่ง เซนเซชั่น,14600000,,110,,,2,2,,,13.671397,100.541818
โนเบิล รีวอลฟ์ รัชดา 2,3720000,,25,,,1,1,,,13.763628,100.569442
,19500000,80000,135,,,3,3,,,13.719323,100.531126
ดี.เอส. ทาวเวอร์ 2,9850000,38000,123,,,3,3,,,13.740611,100.570977
แอ็บสแตร็กส์ พหลโยธิน พาร์ค,4100000,17000,38,,,1,1,,,13.818025,100.564932
,3500000,,32,,,1,1,,,13.728395,100.477949
อินโทร พหลโยธิน-ประดิพัทธ์,4260000,,38,,,1,1,,,13.79205,100.539261
เดอะทรี อินเตอร์เชนจ์,2690000,,30,,,1,1,,,13.805573,100.525556
ฟิวส์ สาทร - ตากสิน,5000000,20000,48,,,1,1,,,13.720432,100.496983
โนเบิลเฮ้าส์ พญาไท,9370000,35000,53,,,1,1,,,13.757169,100.5354
,6390000,25000,50,,,1,1,,,13.725077,100.568533
แอชตัน เรสซิเด้นซ์ 41,18410000,,75,,,2,2,,,13.732784,100.572857
แม่น้ำ เรสซิเดนท์,31500000,98000,160,,,3,3,,,13.705249,100.506916
ไลฟ์ แอท ท่าพระ,3300000,,49,,,2,1,,,13.718129,100.48015
ลุมพินี เพลส รัชดา-ท่าพระ,4750000,18900,,,,2,2,2,2,13.708722,100.481279
,5890000,,30,,,1,1,,,13.831586,100.570987
เดอะ ไลน์ จตุจักร-หมอชิต,4550000,,25,,,1,1,,,13.806244,100.556048
ศุภาลัย ริเวอร์ เพลส,6900000,30000,80,,,2,1,,,13.710744,100.502763
โนเบิล รีวอลฟ์ รัชดา,3660000,,25,,,1,1,,,13.763691,100.569463
เดอะ นิช โมโน พีค บางนา,4890000,,62,,,2,2,2,2,13.666667,100.637774
ลุมพินี สวีท ดินแดง - ราชปรารภ,350000,,28,,25,1,1,1,2,13.763565,100.546539
เอ็ม จตุจักร,3720000,,28,,,1,1,,,13.797477,100.55176
ลุมพินี พาร์ค พระราม 9-รัชดา,3400000,,34,,,1,1,,,13.753416,100.576341
เดอะ นายน์ เพลส,2660000,,40,,,1,1,,,13.653346,100.6107
แอสปาย พระราม 4,2600000,,29,,,1,1,,,13.712091,100.584143
,3510000,,33,,,1,1,,,13.713949,100.468175
โนเบิล รีวีล,8250000,,50,,,1,1,,,13.721926,100.584844
โนเบิล รีวอลฟ์ รัชดา,8457600,,52,,,2,2,,,13.763691,100.569463
,8500000,35000,122,,,2,2,,,13.725548,100.581879
ศุภาลัย พรีมา ริวา,5800000,,63,,,1,1,,,13.68844,100.549071
ลุมพินีเพลสพระราม 3 ริเวอร์วิว,3890000,,65,,,2,2,,,13.690185,100.504865
ควอทโทร บาย แสนสิริ,13900000,50000,53,,,1,1,,,13.727561,100.581708
ศุภาลัย ปาร์ค เอกมัย-ทองหล่อ,4200000,,68,,,2,1,,,13.742941,100.58898
เมโทรลักซ์ เอกมัย - พระราม 4,4260000,,34,,,1,1,,,13.711812,100.580317
,3730000,14000,30,,,,1,,,13.712959,100.600039
ดิ แอดเดรส อโศก,10580000,50000,66,,,2,2,,,13.749514,100.561981
ไอดีโอ สุขุมวิท 93,4430000,,34,,,1,1,,,13.698563,100.604805
เมโทร ปาร์ค สาทร,3040000,,56,,,2,1,,,13.709118,100.451345
เดอะ เทอร์ตี้ไนน์ ,25750000,90000,82,,,2,2,,,13.73221,100.570896
ไอดีโอ สาทร-ท่าพระ,2560000,,22,,,,1,,,13.717258,100.482319
ไอดีโอ คิว ราชเทวี,5800000,,34,,,1,1,,,13.75282,100.533865
ไดมอนด์ สุขุมวิท,3770000,,34,,,1,1,,,13.708239,100.59886
โนเบิล รีวอลฟ์ รัชดา,8450000,,53,,,2,2,,,13.763691,100.569463
ดิแอดเดรสพญาไท,8100000,,51,,,1,1,,,13.759357,100.531765
อิลีเม้นท์ ศรีนครินทร์,2690000,,,,7,1,1,,2,13.696778,100.644537
,2660000,,32,,,1,1,,,13.678308,100.606222
แอสปาย สุขุมวิท 48,3500000,,32,,,1,1,,,13.71118,100.593972
โนเบิล บี ไนน์ทีน,8180000,,33,,,1,1,,,13.74228,100.559167
ไลฟ์ สุขุมวิท 48,5369000,25000,39,,,2,1,,,13.711512,100.594775
,6500000,,110,,,2,2,,,13.705526,100.544263
เดอะ แบงค็อค สาทร,13250000,,64,,,1,1,,,13.71916,100.52069
The Room สาทร,9050000,,50,,,1,1,,,13.722459,100.523549
ชีวาทัย ราชปรารภ,7450000,30000,59,,,1,1,,,13.76182,100.542531
,4199000,,32,,16,1,1,1,2,13.748579,100.606622
แชปเตอร์วัน มิดทาวน์ ลาดพร้าว 24,3900000,,24,,,1,1,,,13.806471,100.572747
ริทึ่ม อโศก 2,5280000,,28,,,1,1,,,13.75391,100.564837
วิสซ์ดอม คอนเนค สุขุมวิท,3710000,,27,,,1,1,,,13.685642,100.610619
แอสปาย สาทร-ท่าพระ,3230000,,31,,,1,1,,,13.715635,100.479962
,3900000,15000,41,,,1,1,,,13.804437,100.576231
333 ริเวอร์ไซด์,7160000,,48,,,1,1,,,13.806523,100.51946
ดี 25 ทองหล่อ,6280000,35000,51,,,1,1,,,13.739114,100.582741
,6700000,,48,,,1,1,,,13.744076,100.587201
บ้านชมดาว,950000,,35,,,1,1,1,1,13.554359,100.348905
ซี เอกมัย,5000000,,34,,,1,1,,,13.740205,100.589785
ไอดีโอ คิว สยาม - ราชเทวี,6770000,,34,,,1,1,,,13.75301,100.533877
เอดจ์ สุขุมวิท 23,8450000,,42,,,1,1,,,13.736521,100.563365
เซอร์เคิล คอนโดมิเนียม,5100000,,48,,,1,1,,,13.749275,100.555941
มารุ เอกมัย 2,9570000,,54,,,2,2,,,13.72461,100.584823
ริทึ่ม สาทร,9470000,32000,45,,,2,2,,,13.717856,100.516763
เซอร์เคิล ลิฟวิ่ง โปรโตไทพ์,10110000,,77,,,2,2,,,13.75008,100.556067
ริเวอร์เฮเว่น คอนโดมิเนียม,5200000,,61,,,2,1,,,13.695135,100.494629
เซ็นทริค สาทร-เซนต์หลุยส์,4790000,24000,35,,,1,1,,,13.718619,100.527063
ไลฟ์ อโศก,8600000,,58,,,2,2,,,13.750283,100.564773
,4040000,16000,31,,,1,1,,,13.712959,100.600039
,3560000,,32,,,1,1,,,13.788697,100.553204
เอ สเปซ อโศก-รัชดา,5000000,,36,,,1,1,,,13.75685,100.560255
,4370000,,28,,,,1,,,13.75598,100.568231
ศุภาลัย พรีมา ริวา,21300000,,246,,,3,5,,,13.68844,100.549071
เดอะ พาร์คแลนด์ รัชดา-ท่าพระ,2610000,,34,,,1,1,,,13.71039,100.479278
ศาลาแดง วัน,17900000,,57,,,1,1,,,13.726661,100.541131
,5290000,,53,,,2,2,,,13.678767,100.615866
โนเบิลเฮ้าส์ พญาไท,6350000,,67,,,2,1,,,13.759012,100.535288
วิลล่าอโศก,10165000,,80,,,1,2,,,13.748849,100.561572
วิลล่าอโศก,11000000,,80,,,1,2,,,13.748849,100.561572
ศาลาแดง วัน,16500000,,56,,,1,1,,,13.726661,100.541131
ไลฟ์ อโศก,5260000,,35,,,1,1,,,13.750283,100.564773
,9301000,,35,,,1,1,,,13.719733,100.522404
,2300000,,26,,,1,1,,,13.740556,100.60006
โนเบิล รีมิกซ์,25000000,55000,88,,,2,2,,,13.724502,100.577252
ซี เอกมัย,3870000,,32,,,1,1,,,13.740205,100.589785
,6070000,28000,95,,,2,2,,,13.699728,100.537118
สิริ แอท สุขุมวิท,12800000,40000,68,,,2,2,,,13.722573,100.580227
ไอดีโอ คิว สยาม - ราชเทวี,5430000,,29,,,1,1,,,13.75301,100.533877
คาซ่า คอนโด รัชดา-ท่าพระ ,2730000,,35,,,1,1,,,13.713789,100.477098
ลุมพินี เพลส พระราม 4-กล้วยน้ำไท,3610000,14500,35,,,1,1,,,13.712813,100.582698
ศุภาลัย เอลีท แอท พญาไท,7550000,,61,,,1,1,,,13.756987,100.539217
ไอดีโอ คิว จุฬา-สามย่าน,6000000,,33,,,1,1,,,13.733349,100.527144
,4650000,16000,50,,,1,1,,,13.726568,100.528252
ศุภาลัย เอลีท แอท พญาไท,5250000,26000,44,,,1,1,,,13.756987,100.539217
คาซ่า คอนโด รัชดา-ราชพฤกษ์ ,2660000,,26,,,1,1,,,13.713727,100.476237
วีธารา สุขุมวิท 36,4490000,,29,,,1,1,,,13.722909,100.576852
,8250000,,34,,,1,1,,,13.738898,100.5609
ไอดีโอ รัชดา-ห้วยขวาง,6600000,,60,,,2,2,,,13.778353,100.57407
คลาส หลังสวน,10930000,,45,,,1,1,,,13.741965,100.544311
แชปเตอร์วัน โมเดิร์นดัชต์,2190000,,29,,,1,1,1,2,13.675457,100.517247
ดิแอดเดรสสยาม,9890000,40000,84,,,2,2,,,13.752146,100.534294
,2650000,,30,,,1,1,,,13.709852,100.479507
ไอดีโอ สุขุมวิท 93,4609000,,35,,,1,1,,,13.698563,100.604805
The Room สาทร-ตากสิน,6130000,20000,48,,,1,1,,,13.717746,100.483477
,7500000,,54,,18,2,2,,3,13.744091,100.587102
,17950000,,71,,,2,2,,,13.719733,100.522404
,6710000,30000,55,,,2,2,,,13.744076,100.587201
วิลล่า ราชเทวี,8620000,,55,,,1,1,,,13.754345,100.532544
โนเบิลโอร่า,15960000,50000,115,,,2,,,,13.735373,100.584167
,8700000,,67,,,2,2,2,3,13.748353,100.526545
,4590000,,30,,,1,1,,,,
ไลฟ์ อโศก,4950000,,35,,,1,1,,,13.750283,100.564773
แอสปาย พระราม9,7800000,,67,,,2,2,,,13.754805,100.566923
,1990000,15000,28,,,1,1,,,,
เซ็นทริค ห้วยขวาง สเตชั่น,4540000,,26,,,1,1,,,13.780297,100.573986
เดอะ ซี้ด มูซี่,5300000,23000,37,,,1,1,,,13.725252,100.570963
ไอดีโอ โมบิ อโศก,9670000,,55,,,2,1,,,13.748426,100.565972
ฟิวส์ มิติ สุทธิสาร-รัชดา,3610000,,31,,,1,1,,,13.789345,100.563723
,8240000,,58,,,2,2,,,13.722909,100.576852
เดอะ เครสท์ สุขุมวิท 49,5150000,,35,,,1,1,,,13.73044,100.577073
,6386000,,41,,,1,1,,,13.75598,100.568231
ไลฟ์ อโศก,3820000,,24,,,1,1,,,13.750283,100.564773
ลุมพินี พาร์ค ริเวอร์ไซด์ พระราม 3	,3000000,,32,,,1,1,,,13.679026,100.527594
ริทึ่ม พหล-อารีย์,6650000,25000,45,,,1,1,,,13.788905,100.545271
,5320000,23000,83,,,2,2,,,13.699728,100.537118
,4490000,,32,,,1,1,,,13.754357,100.563878
ไอดีโอ คิว สยาม - ราชเทวี,6960000,,35,,,1,1,,,13.75301,100.533877
,6804000,,52,,,2,2,,,13.698563,100.604805
แอสปาย สาทร-ท่าพระ,3220000,,31,,,1,1,,,13.715635,100.479962
,4150000,,29,,,1,1,,,,
คีนน์ บาย แสนสิริ,9600000,40000,48,,,1,1,,,13.724993,100.576933
,5110000,,45,,,1,1,,,13.777361,100.546493
ศุภาลัย เอลีท สุรวงศ์,7270000,,60,,,1,1,,,13.730578,100.523288
,5200000,,39,,,1,1,,,13.685642,100.610619
คอนโดเลต ไอซ์ ราชเทวี,7660000,,40,,,1,1,,,13.753338,100.530981
,7410000,,37,,,1,1,,,13.75598,100.568231
ดิ แอดเดรส อโศก,7560000,27000,45,,,1,1,,,13.749514,100.561981
,4280000,,34,,,1,1,,,13.698563,100.604805
เมโทร สกาย รัชดา,2550000,,28,,,1,1,,,13.784071,100.571346
เอดจ์ สุขุมวิท 23,6400000,27000,32,,,1,1,,,13.736521,100.563365
เอดจ์ สุขุมวิท 23,9490000,,43,,,1,1,,,13.736521,100.563365
ไลฟ์ สุขุมวิท 48,5660000,,49,,,1,1,,,13.711512,100.594775
ชีวาทัยอินเตอร์เชนจ์ ,4730000,,40,,,1,1,,,13.806219,100.529814
โอกะ เฮ้าส์ สุขุมวิท 36,3790000,,27,,,1,1,,,13.71581,100.574985
ไอดีโอ คิว ราชเทวี,5310000,,34,,,1,1,,,13.75282,100.533865
เดอะ พาโน,16000000,50000,120,,,2,3,,,13.671397,100.541818
ดิ แอดเดรส สุขุมวิท 42,8300000,37000,78,,,2,2,,,13.716839,100.585358
ไอดีโอบลูโคฟ สุขุมวิท ,7000000,40000,45,,,2,1,,1,13.678583,100.608794
,8000000,,40,,,1,1,,,13.722079,100.55337
,5850000,24000,39,,,1,1,,,13.736265,100.56018
ริทึ่ม รัชดา,5860000,,46,,,1,1,,,13.798751,100.575843
เดอะ คริส เอ็กตร้า 5,2610000,95000,32,,,1,1,,,13.786693,100.572339
ไอดีโอ สาทร-ตากสิน,4790000,20000,35,,,1,1,,,13.720185,100.502037
,6420000,,38,,,1,1,,,13.795069,100.550558
ไอดีโอ คิว จุฬา-สามย่าน,5840000,,34,,,1,1,,,13.733349,100.527144
เดอะริช สาทร - ตากสิน,2784000,,26,,,1,1,,,13.719953,100.493851
เดอะ แบงค็อค สาทร,25500000,,60,,,1,1,,,13.71916,100.52069
,4500000,,29,,,1,1,,,13.722909,100.576852
ไลฟ์ อโศก,5650000,,35,,,1,1,,,13.750283,100.564773
,5141000,,29,,,1,1,,,,
โนเบิล รีโว สีลม,5780000,,34,,,1,1,,,13.719509,100.519492
รีเจ้นท์ออนเดอะปาร์ค 3,15000000,,258,,,3,4,,,13.742239,100.573339
The Room สาทร-ตากสิน,4500000,18000,45,,,1,1,,,13.717746,100.483477
ไอดีโอบลูโคฟ สุขุมวิท ,3450000,,33,,,1,1,,,13.678554,100.608607
,2720000,,25,,,1,1,,,,
สตาร์วิว พระราม 3,9050000,,79,,,2,2,,,13.687433,100.517984
,2880000,12500,28,,,1,1,,,13.712813,100.582698
ไอดีโอ คิว ราชเทวี,6800000,,34,,,1,1,,,13.75282,100.533865
,14640000,,69,,,2,2,,,13.75301,100.533877
วิลล่า สาทร,8730000,,83,,,1,2,,,13.721234,100.504148
ไอวี่ ริเวอร์ ราษฎร์บูรณะ ,9010000,25000,110,,,2,2,,,13.688184,100.492293
มาเอสโตร 02 ร่วมฤดี,6395000,,33,,,1,1,1,1,13.735831,100.550698
,8340000,,53,,,1,1,,,,
เดอะ คริส เอ็กตร้า 5,2230000,,25,,,1,1,,,13.786693,100.572339
ไอดีโอเวิร์ฟ,6390000,,50,,,2,1,,,13.754496,100.54253
วิสซ์ดอม สเตชั่น รัชดา-ท่าพระ,3450000,,27,,,1,1,,,13.713712,100.478352
,7300000,18000,46,,,1,1,,,13.727747,100.535872
เดอะ ไลท์เฮ้าส์ สาทร-เจริญนคร,5680000,28000,48,,,1,1,,,13.7224,100.508352
,7680000,,33,,,1,1,,,13.790049,100.547449
คิวเฮ้าส์คอนโด สุขุมวิท 79,4900000,,31,,,1,1,,,13.707504,100.600429
วิช ซิกเนเจอร์ มิดทาวน์ สยาม,6810000,,33,,,1,1,,,13.751983,100.534693
,5346730,,35,,,1,1,,,13.721571,100.497397
,5198000,23000,63,,,2,1,,,13.756092,100.560767
อิลีเม้นท์ ศรีนครินทร์,2690000,,,,7,1,1,,2,13.696778,100.644537
เดอะ คีย์ วุฒากาศ ,3620000,,33,,,1,1,,,13.713949,100.468175
,15000000,,82,,,1,2,,,13.723244,100.568565
,5107000,25000,40,,,1,1,,,13.730928,100.58638
The Room สุขุมวิท 79,4250000,18000,45,,,1,,,,13.707963,100.601566
เวีย โบทานิ,15960000,,90,,,1,1,,,13.731497,100.574932
,5650000,,48,,,1,1,,,13.729919,100.5075
ไลฟ์ สุขุมวิท 48,6200000,28000,47,,,2,2,,,13.711512,100.594775
ไอดีโอ สาทร-ท่าพระ,2800000,10000,22,,,,1,,,13.717258,100.482319
แอสไปร์ สาทร-ราชพฤกษ์,2160000,,26,,,,1,,,13.716673,100.45842
เดอะ ลอฟท์ อโศก,8800000,,49,,,1,1,,,13.746769,100.562783
,4736000,,28,,,1,1,,,13.75598,100.568231
ไอดีโอ คิว สยาม - ราชเทวี,6790000,,35,,,1,1,,,13.75301,100.533877
เดอะ เทรนดี้ คอนโดมิเนียม,4400000,18000,36,,,1,1,,,13.740529,100.5579
,4545000,20000,35,,,1,1,,,13.712821,100.594265
เออร์บาโน่ แอบโซลูท สาทร-ตากสิน,4200000,22000,38,,,1,1,,,13.721125,100.507202
,9010000,,45,,,1,1,,,13.714446,100.592856
เดอะ ไลน์ จตุจักร-หมอชิต,4920000,,,,,1,1,,,13.806244,100.556048
นอตติ้ง ฮิลล์ ดิ เอ็กซ์คลูซีฟ เจริญกรุง,2650000,,,,,,,1,2,13.702831,100.50526
วิสซ์ดอม สเตชั่น รัชดา-ท่าพระ,2940000,,26,,,1,1,,,13.713712,100.478352
,5885000,,45,,,1,1,,,13.788905,100.545271
ไอดีโอ คิว สยาม - ราชเทวี,6350000,,34,,,1,1,,,13.75301,100.533877
,3940000,16000,40,,,1,1,,,13.754985,100.575145
เดอะ เบส สุขุมวิท 77,3350000,,30,,,1,1,,,13.710945,100.602343
,18090000,60000,121,,,2,2,,,13.730626,100.573124
แอสปาย สาทร-ตากสิน ทิมเบอร์ โซน,2670000,,31,,,1,1,,,13.715635,100.479962
เดอะ ไลน์ อโศก-รัชดา,5940000,,35,,,1,1,,,13.755979,100.563553
ริทึ่ม อโศก 2,4760000,,28,,,1,1,,,13.75391,100.564837
,3800000,,50,,,2,2,,,13.678308,100.606222
แอสปาย สาทร-ท่าพระ,3110000,,31,,,1,1,,,13.715635,100.479962
โนเบิลเฮ้าส์ พญาไท,11235000,,68,,,2,2,,,13.757169,100.5354
เดอะ ลอฟท์ เอกมัย,8900000,43000,45,,,1,1,,,13.718323,100.587363
,1590000,,29,,,1,1,1,1,,
ดิ เอดิเตอร์ สะพายควาย,5000000,16000,28,,,1,1,,,13.794136,100.549538
อมันตา รัชดา,12000000,,84,,,2,2,,,13.765215,100.567935
,4525000,,43,,,1,1,,,13.739269,100.588721
เดอะเพรสซิเดนท์ สุขุมวิท,4790000,18000,35,,,1,1,,,13.707177,100.585732
มาเอสโตร 03 รัชดา - พระราม 9,4050000,,29,,,1,1,,,13.76283,100.564577
เออร์บาโน่ แอบโซลูท สาทร-ตากสิน,9350000,,74,,,2,2,,,13.721125,100.507202
เดอะ ไลน์ จตุจักร-หมอชิต,13370000,,62,,,2,2,,,13.806244,100.556048
รีเจ้นท์ โฮม 4 สุขุมวิท 93,2870000,18000,60,,,2,2,,,13.705243,100.609155
,2100000,,34,,,1,1,,,13.789517,100.588879
เดอะซี้ด พหลโยธิน,4260000,,49,,,2,1,,,13.78687,100.54795
อมันตา ลุมพินี,8900000,30000,64,,,1,1,,,13.723162,100.551403
,6330000,,34,,,1,1,,,13.831586,100.570987
ลุมพินี พาร์ค พระราม 9-รัชดา,2380000,11500,27,,,1,1,,,13.753416,100.576341
,7127000,,69,,,1,1,,,13.721248,100.517142
,7000000,27000,50,,,2,1,,,13.780297,100.573986
แอสปาย พระราม9,4260000,16500,39,,,1,1,,,13.754805,100.566923
,9600000,50000,55,,,,1,,,13.740361,100.557288
คอนโดเลต ไอซ์ ราชเทวี,7130000,,40,,,1,1,,,13.753338,100.530981
คอนโดเลต พิกเซล สาทร,5000000,,36,,,1,1,,,13.718225,100.549333
โนเบิล รีวีล,7400000,35000,46,,,1,1,,,13.721926,100.584844
,10570000,,43,,,1,1,,,13.722079,100.55337
ไอดีโอ สาทร-ท่าพระ,3920000,14000,30,,,1,1,,,13.717258,100.482319
,16000000,60000,230,,,2,2,,,13.735154,100.553447
ศุภาลัย เวลลิงตัน ,5050000,,47,,,1,1,,,13.769198,100.578202
เดอะ ไลน์ จตุจักร-หมอชิต,6370000,,35,,,1,1,,,13.806244,100.556048
เดอะ เทอร์ตี้ไนน์ ,16300000,,58,,,1,1,,,13.73221,100.570896
,6500000,30000,108,,,2,2,,,13.746928,100.556054
ไอดีโอ คิว จุฬา-สามย่าน,5150000,20000,29,,,1,1,,,13.733349,100.527144
185 ราชดำริ,32500000,,102,,,2,2,,,13.735771,100.539092
ไอดีโอ คิว สยาม - ราชเทวี,6880000,,34,,,1,1,,,13.75301,100.533877
,8730000,30000,60,,,1,1,,,13.737837,100.566372
,5500000,,35,,,1,1,,,13.725192,100.574495
เดอะ ไลน์ ราชเทวี,7320000,,28,,,1,1,,,13.752446,100.533475
ไอดีโอ คิว สยาม - ราชเทวี,6390000,,34,,,1,1,,,13.75301,100.533877
โนเบิล รีวอลฟ์ รัชดา 2,6290000,,39,,,2,1,,,13.763628,100.569442
ไลฟ์ อโศก,8200000,,55,,,2,2,,,13.750283,100.564773
,4230000,18000,31,,,1,1,,,13.809454,100.55895
ไอดีโอ ท่าพระ อินเตอร์เชนจ์,4500000,,36,,,1,1,,,13.728973,100.475815
,4790000,,30,,,1,1,,,13.795069,100.550558
,16460000,,89,,,2,2,,,13.739801,100.551763
,7170000,,47,,,1,1,,,13.795858,100.550205
The Room พระราม 4,7700000,,44,,,1,1,,,13.736319,100.52076
,3010000,,30,,,1,1,,,13.740556,100.60006
เอดจ์ สุขุมวิท 23,16000000,,65,,,2,2,,,13.736521,100.563365
เดอะ พาร์คแลนด์ เพชรเกษม – ท่าพระ,2500000,,26,,,1,1,,,13.728395,100.477949
,4060000,,28,,,,1,,,13.75598,100.568231
แอชตัน จุฬา-สีลม,9820000,,35,,,1,1,,,13.731096,100.531012
,3200000,,25,,,,1,,,13.695377,100.605772
ไฮฟ์สุขุมวิท 65,4260000,,40,,,1,1,,,13.720666,100.5882
วิลล่าอโศก,6200000,,52,,,1,1,,,13.748849,100.561572
แอชตัน อโศก,8390000,,34,,,1,1,,,13.738898,100.5609
,8600000,,32,,,1,1,,,13.719733,100.522404
,8200000,,69,,,2,2,,,13.786325,100.573246
ออนิกซ์ พหลโยธิน,6200000,22000,40,,,1,1,,,13.791457,100.548475
โนเบิล รีวอลฟ์ รัชดา 2,6290000,,39,,,2,1,,,13.763628,100.569442
แอชตัน อโศก,7782000,,32,,,1,1,,,13.738898,100.5609
,4450000,,29,,,1,1,,,13.79696,100.569606
วิลล่า สาทร,5470000,28500,49,,,1,1,,,13.721234,100.504148
,11710000,,56,,,1,1,,,13.743554,100.544958
แบงค์คอกเฟลิซ สุขุมวิท 69,3720000,17000,34,,,1,1,,,13.715325,100.592021
ริทึ่ม รัชดา,5750000,20000,46,,,1,1,,,13.798751,100.575843
,2540000,,28,,,1,1,,,13.774053,100.576856
ลุมพินี พาร์ค พระราม 9-รัชดา,4150000,,38,,,1,1,,,13.753416,100.576341
เดอะ เพรสซิเด้นท์ สาทร-ราชพฤกษ์ 1,2350000,,30,,,1,1,1,1,13.72096,100.458784
