CondoName,SalePrice,RentPrice,RoomArea,UnitNbr,FloorNbr,nbrBed,nbrBath,nbrPark,nbrAirCon,Latitude,Longitude
เดอะ ดิโพลแมท 39,23370000,,83,,,2,2,1,3,13.731524,100.570693
ไอดีโอ มอร์ฟ 38,5860000,,37,,,1,1,,,13.720934,100.579078
โนเบิล รีโคล สุขุมวิท 19,6600000,,35,,,1,1,,,13.742184,100.559938
คาซ่า คอนโด อโศก-ดินแดง ,3520000,,26,,,1,1,,,13.760815,100.555733
ไอดีโอ คิว ราชเทวี,6300000,25000,34,,,1,1,,,13.75282,100.533865
เดอะ สกาย สุขุมวิท,3900000,15000,24,,,1,1,,,13.674922,100.611092
วิลล่า สาทร,5960000,,59,,,1,1,,,13.721234,100.504148
เดอะเพรสซิเดนท์ สุขุมวิท,4040000,,34,,,1,1,,,13.707177,100.585732
ชีวาทัย เรสซิเดนซ์ อโศก,5310000,,28,,,1,1,,,13.753899,100.564346
ดี เมโมเรีย พหลโยธิน 8,4150000,,36,,,1,1,,,13.778323,100.548591
แชปเตอร์วัน มิดทาวน์ ลาดพร้าว 24,3010000,,24,,,1,1,,,13.806471,100.572747
,4060000,17000,31,,,1,1,,,13.778939,100.541305
แอชตัน อโศก,10825000,,34,,,1,1,,,13.738898,100.5609
วิสซ์ดอม คอนเนค สุขุมวิท,3697700,,29,,,1,1,,,13.685642,100.610619
ริทึ่ม รัชดา,5320000,,46,,,1,1,,,13.798751,100.575843
มาเอสโตร 03 รัชดา - พระราม 9,4140000,,29,,,1,1,,,13.76283,100.564577
แอชตัน สีลม,15000000,,49,,,1,1,,,13.726391,100.526828
,11034000,,46,,,1,1,,,13.74228,100.559167
,4160000,,35,,,1,1,,,13.744076,100.587201
,3050000,18000,35,,,1,1,,,13.735621,100.574674
มาย คอนโด สาทร-ตากสิน,2240000,,25,,,1,1,,,13.722601,100.495837
เอสวี ซิตี้ พระราม 3 ,3720000,,90,,,3,2,,,13.673366,100.543027
,4160000,,32,,,1,1,,,13.795069,100.550558
ไอดีโอ สุขุมวิท 93,4150000,,32,,,1,1,,,13.698563,100.604805
แชปเตอร์วัน มิดทาวน์ ลาดพร้าว 24,4050000,,30,,,1,1,,,13.806471,100.572747
มาเอสโตร 03 รัชดา - พระราม 9,4460000,,33,,,1,1,,,13.76283,100.564577
วิสซ์ดอม สเตชั่น รัชดา-ท่าพระ,3900000,,28,,,1,1,,,13.713712,100.478352
โนเบิล รีดี,9900000,,56,,,2,1,,,13.780238,100.54375
ไลฟ์ อโศก-พระราม 9 ,5048000,,35,,,1,1,,,13.754357,100.563878
,5400000,,60,,,1,1,,,13.738538,100.587179
,3371000,,25,,,,1,,,13.724903,100.563369
,5700000,25000,44,,,1,1,,,13.70615,100.601615
ไอดีโอเวิร์ฟ,7660000,,59,,,1,1,,,13.754496,100.54253
ไลฟ์ อโศก-พระราม 9 ,4100000,,32,,,1,1,,,13.754357,100.563878
ไอดีโอมิกซ์ สุขุมวิท 103 ,3100000,,25,,,,1,,,13.680549,100.610491
,3500000,,34,,,1,1,,,13.687065,100.605973
เดอะ พาร์คแลนด์ ตากสิน-ท่าพระ,3820000,,34,,,1,1,,,13.716554,100.480646
ไอดีโอ สุขุมวิท 93,3490000,,26,,,1,1,,,13.698563,100.604805
เอสแอนด์เอส สุขุมวิท,2330000,,38,,,1,1,,,13.683741,100.614941
ไลฟ์ แอท รัชดา-ห้วยขวาง,4260000,20000,41,,,1,1,,,13.778809,100.574207
ลุมพินี เพลส พระราม 4-กล้วยน้ำไท,2450000,,28,,,,,1,1,13.712832,100.582525
เซ็นทริค สาทร-เซนต์หลุยส์,12500000,,84,,,2,2,,,13.718619,100.527063
ศุภาลัย ริเวอร์ รีสอร์ท,24210000,,175,,,3,4,,,13.708888,100.495038
เซอร์เคิล ลิฟวิ่ง โปรโตไทพ์,13300000,,83,,,2,2,,,13.749906,100.556175
ไอดีโอเวิร์ฟ,4790000,20000,35,,,1,1,,,13.754496,100.54253
คิวเฮ้าส์ คอนโด สาทร ,7950000,,57,,,2,2,,,13.72129,100.501253
ศุภาลัย เวลลิงตัน 2,3760000,,45,,,1,1,,,13.767032,100.578865
เทลลา ทองหล่อ,38000000,,111,,,2,2,,,13.733247,100.582097
เซนส์ พหลโยธิน,3560000,16000,35,,,1,1,,,13.789005,100.552243
,4200000,,29,,,1,1,,,13.722909,100.576852
,3194000,,25,,,,1,,,13.754357,100.563878
เอ สเปซ ไอดี อโศก-รัชดา,4500000,,32,,,1,1,,,13.756804,100.560239
เอลลิโอ เดล เรย์ สุขุมวิท 64,2090000,,24,,,,1,,,13.684212,100.604489
,5160000,,32,,,1,1,,,13.797477,100.55176
เดอะ เทมโป แกรนด์ สาทร-วุฒากาศ,3160000,30000,28,,,1,1,,,13.712604,100.467943
,6440000,,52,,,2,2,,,13.698563,100.604805
,2650000,,30,,,1,1,,,13.709852,100.479507
โนเบิล รีวอลฟ์ รัชดา 2,3760000,,26,,,1,1,,,13.763628,100.569442
ศุภาลัย พรีเมียร์ รัชดาฯ-นราธิวาส-สาทร,3800000,,52,,,1,1,,,13.698521,100.541421
,13090000,70000,79,,,2,2,,,13.72974,100.581259
,5480000,,62,,,2,2,,,,
ไนท์บริดจ์ ไพร์ม สาทร,7270000,,57,,,1,1,,,13.716801,100.533128
โนเบิล รีวอลฟ์ รัชดา,3900000,,25,,,1,1,,,13.763691,100.569463
เซ็นทริคซีน อารีย์ 2,12000000,,84,,,2,2,,,13.779894,100.542101
แอสปาย รัชดา–วงศ์สว่าง,2500000,10000,23,,,1,1,,,13.830736,100.525306
พญาไทเพลส,6420000,18000,50,,,1,1,,,13.758526,100.533874
ไอดีโอ มอร์ฟ 38,5250000,,34,,,1,1,1,2,13.720762,100.57926
แอชตัน อโศก,8590000,,34,,,1,1,,,13.738898,100.5609
ไลฟ์ อโศก,4160000,,29,,,,1,,,13.750283,100.564773
ไอดีโอ โมบิ สุขุมวิท,3730000,15000,21,,,1,1,,,13.704024,100.602008
แอ็บสแตร็กส์ สุขุมวิท 66/1,3600000,,36,,,1,1,,,13.679587,100.605677
เดอะ รูม สุขุมวิท 69 ,6000000,,34,,,1,1,,,13.714446,100.592856
เลอ ลัก คอนโดมิเนียม,4470000,17000,39,,,1,1,,,13.714591,100.593232
,14650000,,70,,,2,2,,,13.722468,100.58455
โนเบิลเฮ้าส์ พญาไท,7450000,,40,,,1,1,,,13.757169,100.5354
ซิมโฟนี สุขุมวิท,4580000,17000,46,,,1,1,,,13.696328,100.605266
,60000,,150,,,3,2,,,,
,4900000,,38,,,1,1,,,13.795069,100.550558
เอ สเปซ ไอดี อโศก-รัชดา,5600000,18000,33,,,1,1,,,13.756804,100.560239
วินด์ รัชโยธิน ,5200000,,53,,,1,1,,,13.828605,100.566228
แอสปาย สุขุมวิท 48,3620000,14000,33,,,1,,,,13.71118,100.593972
ไลฟ์ อโศก,5410000,,35,,,1,1,,,13.750283,100.564773
แอชตัน จุฬา-สีลม,13920000,,63,,,2,2,,,13.731096,100.531012
เดอะ คีย์ สาทร-เจริญราษฎร์,3610000,,35,,,1,1,,,13.701033,100.516013
ดิ แอดเดรส อโศก,7050000,30000,47,,,1,1,,,13.749514,100.561981
,7530000,,35,,,1,1,,,13.743472,100.554339
โนเบิล รีวอลฟ์ รัชดา,3580000,,25,,,1,1,,,13.763691,100.569463
เดอะ คีย์ สาทร-เจริญราษฎร์,3670000,,34,,,1,1,,,13.701033,100.516013
The Room สาทร-ตากสิน,5000000,,48,,,1,1,,,13.717746,100.483477
ศุภาลัย ปาร์ค อโศก-รัชดา,3900000,,50,,,1,1,,,13.756092,100.560767
The Room เจริญกรุง 30,9680000,,54,,,1,1,,,13.728981,100.515637
เดอะ ไลน์ จตุจักร-หมอชิต,4700000,18000,26,,,1,1,,,13.806244,100.556048
แวนเทจ รัชวิภา,3790000,,47,,,1,1,1,1,13.830703,100.560187
,2077000,,28,,,1,1,,,13.774053,100.576856
แอชตัน จุฬา-สีลม,6780000,,31,,,1,1,,,13.731096,100.531012
แอชตัน สีลม,20000000,,72,,,2,2,,,13.726391,100.526828
ไอดีโอมิกซ์ สุขุมวิท 103 ,3390000,,30,,,1,1,,,13.680549,100.610491
ไอดีโอ สุขุมวิท 93,3600000,,31,,,1,1,,,13.698563,100.604805
,5780000,,34,,,1,1,,,13.734894,100.556933
รีเจ้นท์ ออคิด สุขุมวิท 101,2700000,15000,28,,,1,1,,,13.691353,100.610298
ไซมิส เอ็กซ์คลูซีฟ สุขุมวิท 31,13720000,,91,,,2,1,,,13.738236,100.566142
,2980000,,29,,,1,1,,,13.755319,100.568794
เดอะ คิวบ์ พลัส แจ้งวัฒนะ,2500000,,36,,,1,1,1,2,13.889252,100.576879
เดอะ เพลนเนอรี่ สาทร,4990000,,54,,,2,1,,,13.722473,100.498978
,3610000,,43,,,1,1,,,13.803648,100.577779
เดอะ เครสท์ สุขุมวิท 24,9300000,,45,,,1,1,,,13.729229,100.566074
คอนโดเลต ไอซ์ ราชเทวี,9500000,27000,52,,,1,1,,,13.753338,100.530981
ไอดีโอ คิว สยาม - ราชเทวี,6740000,,34,,,1,1,,,13.75301,100.533877
ศุภาลัย ปาร์ค อโศก-รัชดา,2900000,15000,35,,,1,1,,,13.756092,100.560767
,4550000,,50,,,1,1,,,13.721818,100.580479
,9000000,55000,74,,,1,2,,,13.720641,100.528207
,3740000,,31,,,1,1,,,13.717258,100.482319
สตาร์วิว พระราม 3,8520000,,81,,,2,2,,,13.687433,100.517984
ทรูทองหล่อ,4200000,18000,36,,,1,1,,,13.744202,100.58534
ไอดีโอ โมบิ พระราม 9,10190000,,46,,,2,1,,,13.755643,100.565972
เดอะ นิช รัชดา-ห้วยขวาง,2880000,,35,,,1,1,,,13.768423,100.648183
ริทึ่ม รัชดา-ห้วยขวาง,7350000,26000,50,,,1,1,,,13.77788,100.573958
ไลฟ์ อโศก,3980000,,29,,,1,1,,,13.750283,100.564773
ลุมพินี เพลส พระราม 4-กล้วยน้ำไท,2400000,,29,,,1,1,,,13.712813,100.582698
เดอะ พาร์คแลนด์ เพชรเกษม – ท่าพระ,2800000,,34,,,1,1,,,13.728395,100.477949
ฮาร์โมนีลิฟวิ่ง,9185000,,98,,,3,2,,,13.787424,100.546179
ซาริ บาย แสนสิริ,7350000,,79,,,2,2,,,13.687312,100.606829
ไลฟ์ อโศก-พระราม 9 ,3170000,,25,,,,1,,,13.754357,100.563878
ไอดีโอ คิว จุฬา-สามย่าน,6000000,,24,,,1,1,,,13.733349,100.527144
,4110000,,24,,,,1,,,13.795858,100.550205
คิว คอนโด อโศก ,6600000,30000,32,,,1,1,,,13.748244,100.562727
ลุมพินีเพลสพระราม 3 ริเวอร์วิว,2234000,,30,,,1,1,,,13.692937,100.502058
,2470000,,25,,,,1,,,,
,5350000,,35,,,1,1,,,13.788905,100.545271
ยู ดีไลท์ เรสซิเดนซ์ ริเวอร์ฟรอนท์ พระราม 3,6050000,24000,56,,,2,2,,,13.675303,100.532792
ไลฟ์ รัชดาภิเษก,3970000,16000,31,,,1,1,,,13.790669,100.574196
,5900000,,32,,,1,1,,,13.790049,100.547449
วิสซ์ดอม อเวนิว รัชดา-ลาดพร้าว,8190000,,56,,,2,2,,,13.80522,100.574214
คาซ่า คอนโด อโศก-ดินแดง ,2980000,,30,,,1,1,,,13.760815,100.555733
,6010000,,36,,,1,1,,,13.755979,100.563553
แอ็บสแตร็กส์ พหลโยธิน พาร์ค,4800000,,49,,,1,1,,,13.818025,100.564932
โนเบิล เพลินจิต,18200000,,57,,,1,1,,,13.743764,100.54861
ศุภาลัย ริเวอร์ เพลส,6900000,30000,80,,,2,1,,,13.710744,100.502763
ซาริ บาย แสนสิริ,4500000,18000,45,,,1,1,,,13.687312,100.606829
,18540000,,69,,,2,2,,,13.755577,100.564376
,4800000,17000,58,,,2,1,,,13.719319,100.455781
,2750000,12000,35,,,1,1,,,13.803648,100.577779
,9100000,,78,,,2,2,,,13.753477,100.534165
ริเวอร์เฮเว่น คอนโดมิเนียม,5850000,25000,61,,,2,2,,,13.695135,100.494629
ไลฟ์ อโศก,4250000,,29,,,,1,,,13.750283,100.564773
,3750000,16000,40,,,1,1,,,13.804437,100.576231
ไอดีโอ สุขุมวิท 93,3390000,,42,,,1,1,,,13.698563,100.604805
ลุมพินี เพลส พระราม 9 - รัชดา,5700000,26500,72,,,2,2,,,13.75633,100.571409
แอชตัน จุฬา-สีลม,6250000,,31,,,1,1,,,13.731096,100.531012
ศุภาลัย โอเรียนทัล เพลส,3900000,,40,,,,1,,,13.719848,100.539891
แม่น้ำ เรสซิเดนท์,11000000,,48,,,1,1,,,13.705249,100.506916
แบงค์คอก ฮอไรซอน สาทร,4030000,,34,,,1,1,,,13.712785,100.533294
ไฮด์ สุขุมวิท,12770000,60000,72,,,2,2,,,13.740361,100.557288
ไอดีโอ สุขุมวิท 93,3450000,,25,,,,1,,,13.698563,100.604805
เดอะ เซนต์ เรสิเดนเซส ,4230000,,30,,,1,1,,,,
,8130000,,37,,,1,1,,,13.743168,100.561734
คิว ชิดลม-เพชรบุรี,12220950,,63,,,2,2,,,13.749404,100.543869
,3700000,,23,,,1,1,,,,
,8800000,35000,51,,,1,1,,,13.721157,100.537437
เดอะ ไลน์ จตุจักร-หมอชิต,6763000,,35,,,1,1,,,13.806244,100.556048
แบงค์คอก ฮอไรซอน สาทร,4570000,,35,,,1,1,,,13.712785,100.533294
ศุภาลัย พรีเมียร์ รัชดาฯ-นราธิวาส-สาทร,3900000,,52,,,1,1,,,13.698521,100.541421
แอชตัน เรสซิเด้นซ์ 41,18410000,,75,,,2,2,,,13.732784,100.572857
คลาส สารสิน ราชดำริ,8520000,,47,,,1,1,,,13.734327,100.542196
ชีวาทัย เรสซิเดนซ์ อโศก,5735000,,35,,,1,1,,,,
เมโทร ลักซ์ รัชดา,4740000,,36,,,1,1,,,13.784053,100.573567
เดอะ ริเวอร์,39180000,,188,,,3,3,,,13.721558,100.510307
เซ็นทริค สาทร-เซนต์หลุยส์,5400000,20000,35,,,1,1,,,13.718619,100.527063
มาเอสโตร 14 สยาม - ราชเทวี,4472000,,27,,,1,1,,,13.750751,100.529212
คาซ่า คอนโด อโศก-ดินแดง ,2160000,,26,,,1,1,,,13.760815,100.555733
ดิแอดเดรสพญาไท,7430000,,39,,,1,1,,,13.759357,100.531765
ไลฟ์ สุขุมวิท 48,3470000,,33,,,1,1,,,13.711512,100.594775
,8550000,,34,,,1,1,,,13.743472,100.554339
ริทึ่ม รัชดา,5030000,18000,45,,,1,1,,,13.798751,100.575843
,13900000,70000,87,,,2,2,,,13.73873,100.541509
ลุมพินี เพลส พระราม 4-กล้วยน้ำไท,2660000,12000,29,,,1,1,,,13.712813,100.582698
,3800000,,40,,,1,1,,,13.804437,100.576231
ไลฟ์ อโศก,5252800,,35,,,1,1,,,13.750283,100.564773
ดิ แอดเดรส อโศก,6150000,30000,35,,,1,1,,,13.749514,100.561981
ลิฟ แอท 49,7350000,35000,40,,,1,1,,,13.728634,100.575585
,5690000,27000,64,,,2,1,,,13.754985,100.575145
,21000000,80000,125,,,2,3,,,13.743606,100.561252
อโศกเพลส,6360000,30000,81,,,2,1,,,13.741764,100.56222
วิสซ์ดอม อเวนิว รัชดา-ลาดพร้าว,5400000,,35,,,1,1,,,13.80522,100.574214
แอสปาย สาทร-ตากสิน (บริค โซน),2940000,,31,,,1,1,,,13.715635,100.479962
ไลฟ์ อโศก-พระราม 9 ,7643600,,58,,,2,2,,,13.754357,100.563878
,20000000,,100,,,2,3,,,13.723244,100.568565
,6300000,28000,,,,1,1,,,13.724752,100.583137
แอสไปร์ สาทร-ราชพฤกษ์,3100000,,35,,,1,1,,,13.716673,100.45842
ศุภาลัย เวลลิงตัน ,4470000,18000,49,,,1,1,,,13.769198,100.578202
,4300000,,51,,,2,1,,,13.712998,100.465803
เซอร์เคิล คอนโดมิเนียม,5300000,23000,44,,,1,1,,,13.749275,100.555941
ไลฟ์ อโศก,3935500,,29,,,1,1,,,13.750283,100.564773
แอสปาย สุขุมวิท 48,3730000,18000,33,,,1,1,,,13.71118,100.593972
เดอะ สเตจ เตาปูน-อินเตอร์เชนจ์,5420000,,56,,,2,2,,,13.806258,100.526553
คลาส สยาม,7730000,,44,,,1,1,,,13.747592,100.528244
คอนโด เลต มิสท์ พระราม 9,4620000,,29,,,1,1,,,13.755821,100.566363
,3710000,,23,,,1,1,,,,
,9900000,,59,,,2,1,,,13.760067,100.569381
,9130000,,89,,,1,1,,,13.736947,100.584643
The Room เจริญกรุง 30,10197000,,56,,,1,1,,,13.728981,100.515637
The Room สุขุมวิท 21,28730000,85000,117,,,2,2,,,13.743606,100.561252
โมนีค สุขุมวิท 64,3820000,,49,,,1,1,,,13.688779,100.602379
วิสซ์ดอม คอนเนค สุขุมวิท,4130000,,30,,,,1,,,13.685642,100.610619
เดอะ เซนต์ เรสิเดนเซส ,4280000,,,,,1,1,,,13.811758,100.560022
ไอดีโอ มอร์ฟ 38,2630000,,22,,,1,1,,,13.818953,100.532139
เดอะ แบงค็อค สาทร,32000000,,124,,,2,2,,,13.71916,100.52069
เออร์บิเทีย ทองหล่อ,7990000,,58,,,2,2,,,13.722909,100.576852
คอนโดเลต พิกเซล สาทร,3080000,,23,,,1,1,,,13.718225,100.549333
เดอะ สตาร์ เอสเตท พระราม 3,4790000,,58,,,1,1,,,13.674774,100.534755
ไลฟ์ สุขุมวิท 48,4130000,,40,,,1,1,,,13.711512,100.594775
วิลล่า ราชเทวี,14140000,,84,,,2,2,,,13.754345,100.532544
แอชตัน สีลม,14800000,,49,,,1,1,,,13.726014,100.526999
มายรีสอร์ท บางกอก,4800000,,50,,,1,1,,,13.748381,100.566619
,5361000,,34,,,1,1,,,13.795858,100.550205
แอชตัน จุฬา-สีลม,9810000,,35,,,1,1,,,13.731096,100.531012
,10540000,,79,,,2,2,,,13.745673,100.549646
แอสปาย สาทร-ตากสิน (บริค โซน),2350000,,27,,,1,1,,,13.712012,100.463402
ไฮฟ์ ตากสิน,8260000,,73,,,2,2,,,13.721894,100.496529
ไฮฟ์สุขุมวิท 65,4790000,18000,41,,,1,1,,,13.720666,100.5882
อมันตา รัชดา,13090000,,123,,,2,2,,,13.765215,100.567935
วิสซ์ดอม อเวนิว รัชดา-ลาดพร้าว,5200000,,35,,,1,1,,,13.80522,100.574214
วิลล่า สาทร,8550000,40000,83,,,2,2,,,13.721234,100.504148
แบงค์คอกเฟลิซ สุขุมวิท 69,5000000,,43,,,1,1,,,13.715325,100.592021
,1900000,9000,37,,,1,1,1,2,13.722754,100.525081
เอลลิโอ เดล เรย์ สุขุมวิท 64,3400000,,34,,,1,1,,,13.684212,100.604489
ไลฟ์ อโศก,8190000,,54,,,2,1,,,13.750283,100.564773
พาร์ค 24 เฟส 1,4630000,,29,,,1,1,,,13.725512,100.566204
,8400000,40000,53,,,1,1,,,13.725069,100.564216
ริทึ่ม สาทร,8600000,,55,,,2,,,,13.718825,100.532778
แอชตัน จุฬา-สีลม,15860000,,63,,,2,2,,,13.731096,100.531012
โนเบิล รีวอลฟ์ รัชดา 2,3830000,,25,,,1,1,,,13.763628,100.569442
ฟิวส์ สาทร - ตากสิน,3300000,13000,,,,1,1,,,13.720432,100.496983
,11510000,,56,,,2,2,,,13.725512,100.566204
ไอดีโอ โมบิ บางซื่อ แกรนด์ อินเตอร์เช้นจ์,4433000,,30,,,1,1,,,13.805893,100.533039
,9650000,,90,,,3,2,,,13.750044,100.538614
เดอะ ริเวอร์,65000000,,325,,,5,5,,,13.721558,100.510307
เดอะ เบส พาร์คอีสต์-สุขุมวิท 77,4120000,,30,,,,1,,,13.713486,100.600417
เดอะ เบส สุขุมวิท 77,3980000,,34,,,1,1,,,13.710945,100.602343
ริทึ่ม สาทร,9350000,30000,61,,,2,2,,,13.718825,100.532778
ทรูทองหล่อ,3900000,18000,36,,,1,1,,,13.744202,100.58534
ริทึ่ม พหล-อารีย์,5960000,,46,,,1,1,,,13.788905,100.545271
,2300000,,26,,,1,1,,,13.740556,100.60006
ดิ อาร์ท แอท ทองหล่อ,4800000,,40,,,1,1,,,13.740081,100.580923
มิราจ สุขุมวิท 27,5150000,27000,35,,,1,1,,,13.735297,100.564494
,3690000,20000,52,,,2,1,,,13.745552,100.55126
,4580000,18000,41,,,1,1,,,13.717117,100.589111
ศุภาลัย ปาร์ค อโศก-รัชดา,4000000,,50,,,1,1,,,13.756092,100.560767
ศุภาลัย เอลีท สี่พระยา,5670000,,42,,,1,1,,,13.731314,100.522446
แอสปาย สาทร-ตากสิน ทิมเบอร์ โซน,3140000,,31,,,1,1,,,13.715635,100.479962
ริทึ่ม อโศก 2,4240000,,28,,,1,1,,,13.75391,100.564837
,3160000,,35,,,1,1,,,13.707177,100.585732
เดอะ เพรสซิเด้นท์ สาทร-ราชพฤกษ์ 1,5860000,,60,,,2,1,,,13.72043,100.458841
แอสปาย สุขุมวิท 48,3200000,15000,32,,,1,,,,13.71118,100.593972
เดอะ เครสท์ สุขุมวิท 49,5150000,,35,,,1,1,,,13.73044,100.577073
,20100000,70000,130,,,2,3,,,13.731711,100.571119
ไอดีโอมิกซ์ สุขุมวิท 103 ,3700000,,35,,,1,1,,,13.680549,100.610491
เดอะทรี สุขุมวิท 71-เอกมัย,2319587,,27,,,1,1,,,13.740556,100.60006
เดอะทรี พริวาต้า,2400000,,27,,,1,1,,,13.80094,100.521037
,10980000,,43,,,1,1,,,13.755577,100.564376
,7000000,25000,34,,,1,1,,,13.75282,100.533865
แอสปาย พระราม9,4790000,18000,39,,,1,1,,,13.754805,100.566923
ไลฟ์ แอท ลาดพร้าว 18,4260000,,40,,,1,1,,,13.807363,100.570213
ศุภาลัย เอลีท แอท พญาไท,7600000,,61,,,1,1,,,13.756987,100.539217
,6340000,,35,,,1,1,,,13.75939,100.541384
ฟิวส์ สาทร - ตากสิน,3500000,16000,33,,,1,1,,,13.720432,100.496983
,4000000,17000,41,,,1,1,,,13.804437,100.576231
ริทึ่ม รัชดา-ห้วยขวาง,6070000,,46,,,1,1,,,13.77788,100.573958
บ้านปทุมวัน,14900000,,92,,,3,3,,,13.754696,100.534251
ไลฟ์ สุขุมวิท 48,5369000,25000,39,,,2,1,,,13.711512,100.594775
,9000000,,97,,,2,2,,,13.765215,100.567935
ศุภาลัย เอลีท สาทร-สวนพลู,12000000,,92,,,2,2,,,13.721157,100.537437
ริทึ่ม รางน้ำ,5150000,,28,,,1,1,,,13.761155,100.536971
บ้านกลางกรุง สยาม-ปทุมวัน,7455000,22000,50,,,1,1,,,13.751836,100.531988
โนเบิล รีวอลฟ์ รัชดา 2,3870000,,26,,,1,1,,,13.763628,100.569442
เดอะ ดิโพลแมท 39,14470000,,54,,,1,1,,,13.731507,100.570729
โนเบิล รีโว สีลม,5450000,20000,34,,,1,1,,,13.719509,100.519492
ไลฟ์ อโศก,4900000,,35,,,1,1,,,13.750283,100.564773
คิวเฮ้าส์ คอนโด สาทร ,6000000,24000,47,,,1,1,,,13.72129,100.501253
วิลล่าอโศก,6200000,,52,,,1,1,,,13.748849,100.561572
ไอดีโอ สุขุมวิท 93,3300000,,25,,,1,1,,,13.698563,100.604805
เซ็นทริค ซีน รัชวิภา,4000000,15000,42,,,1,1,,,13.830423,100.533174
คอนโด วัน เอ็กซ์ สาทร-นราธิวาส,3800000,,51,,,1,1,,,13.699973,100.535977
ไอดีโอ สุขุมวิท 93,3450000,,25,,,,1,,,13.698563,100.604805
,3360000,,30,,,1,1,,,13.772054,100.579979
เอดจ์ สุขุมวิท 23,8450000,,43,,,1,1,,,13.736521,100.563365
เดอะ ไลน์ จตุจักร-หมอชิต,4710000,,26,,,1,1,,,13.806244,100.556048
แอสปาย สุขุมวิท 48,3800000,20000,38,,,1,1,,,13.71118,100.593972
ริทึ่ม อโศก 2,5680000,,30,,,1,1,,,13.75391,100.564837
ไนท์บริดจ์ ไพร์ม สาทร,4780000,,34,,,1,1,,,13.716801,100.533128
พาร์ค 24 เฟส 1,12600000,,57,,,2,2,,,13.725512,100.566204
เดอะ ไลน์ อโศก-รัชดา,8490000,,47,,,2,1,,,13.755979,100.563553
,7450000,,50,,,2,2,,,13.695377,100.605772
แอชตัน จุฬา-สีลม,5460000,,26,,,1,1,,,13.731096,100.531012
เดอะรีเซิร์ฟ เกษมสันต์ 3,4790000,,30,,,1,1,,,13.749074,100.527364
ไลฟ์ อโศก,4227000,,29,,,1,1,,,13.750283,100.564773
,4900000,,38,,,1,1,,,13.795069,100.550558
,4020000,,32,,,1,1,,,13.754357,100.563878
เดอะ ไลท์เฮ้าส์ สาทร-เจริญนคร,3000000,,30,,,1,1,,,13.7224,100.508352
คลาส หลังสวน,20220000,72000,72,,,2,2,,,13.741965,100.544311
โนเบิล รีโคล สุขุมวิท 19,12125000,,62,,,2,2,,,13.742184,100.559938
โนเบิล รีวอลฟ์ รัชดา 2,3870000,,26,,,1,1,,,13.763628,100.569442
แอชตัน สีลม,22454000,,86,,,2,2,,,13.726391,100.526828
,43050000,,140,,,2,3,,,13.730786,100.570792
เซ็นทริค ห้วยขวาง สเตชั่น,6390000,,38,,,1,1,,,13.780297,100.573986
ไฮด์ สุขุมวิท,22000000,,108,,,2,2,,,13.740361,100.557288
วิช ซิกเนเจอร์ มิดทาวน์ สยาม,5350000,,34,,,1,1,,,13.751983,100.534693
เดอะ เบส สุขุมวิท 77,5860000,,58,,,2,2,,,13.710945,100.602343
อีควิน๊อกซ์ พหล-วิภา,5100000,,40,,,1,1,,,13.809454,100.55895
พาร์ค 24 เฟส 1,10640000,,55,,,2,1,,,13.725512,100.566204
,10500000,50000,208,,,4,4,,,13.735154,100.553447
เดอะ เพรสซิเด้นท์ สาทร-ราชพฤกษ์ 1,2660000,,30,,,1,1,,,13.72043,100.458841
เอดจ์ สุขุมวิท 23,15540000,,64,,,2,2,,,13.736521,100.563365
,3210000,,28,,,1,1,,,13.713712,100.478352
ควินน์ คอนโด รัชดา17,4720000,,44,,,1,1,,,13.786325,100.573246
ไอดีโอ คิว สยาม - ราชเทวี,5970000,,34,,,1,1,,,13.75301,100.533877
,7120000,45000,77,,,2,2,,,13.687433,100.517984
,19500000,,76,,,2,2,,,13.743168,100.561734
ริทึ่ม รางน้ำ,6970000,,35,,,1,1,,,13.761155,100.536971
เดอะ ไลน์ จตุจักร-หมอชิต,10500000,,59,,,2,2,,,13.806244,100.556048
ไอดีโอ ท่าพระ อินเตอร์เชนจ์,2851063,,28,,,1,1,,,13.728973,100.475815
ไฮฟ์ ตากสิน,8260000,,73,,,2,2,,,13.721894,100.496529
,5800000,25000,38,,,1,1,,,13.718825,100.532778
เดอะ เซนต์ เรสิเดนเซส ,5000000,,30,,,1,1,,,,
ไทดี้ ทองหล่อ,4700000,28000,33,,,1,1,,,13.735563,100.58139
สิริ แอท สุขุมวิท,9000000,40000,52,,,1,1,,,13.722573,100.580227
เดอะ ริเวอร์,14150000,,77,,,1,1,,,13.721558,100.510307
,8470000,,47,,,1,1,,,13.739801,100.551763
วิลล่า ราชเทวี,4540000,,43,,,1,1,,,13.754345,100.532544
ไอดีโอ สุขุมวิท 93,3385000,,26,,,1,1,,,13.698563,100.604805
เออร์บาโน่ แอบโซลูท สาทร-ตากสิน,16000000,,120,,,3,3,,,13.721125,100.507202
,8538000,,49,,,2,1,,,13.71581,100.574985
แอสปาย สาทร-ตากสิน ทิมเบอร์ โซน,2680000,,27,,,1,1,,,13.715635,100.479962
ไลฟ์ อโศก,4200000,,29,,,1,1,,,13.750283,100.564773
,5780000,,75,,,2,2,,,13.718515,100.573483
ไอดีโอมิกซ์ สุขุมวิท 103 ,3100000,,25,,,,1,,,13.680549,100.610491
คิว สุขุมวิท (Back up),29355000,,96,,,2,2,,,13.740318,100.555334
ไอดีโอ สุขุมวิท 93,3880000,,34,,,1,1,,,13.698563,100.604805
โนเบิลเฮ้าส์ พญาไท,9200000,,50,,,1,1,,,13.757169,100.5354
ไอดีโอ มอร์ฟ 38,8300000,33000,36,,,1,1,,,13.720934,100.579078
,4600000,,30,,,1,1,,,,
ไอดีโอเวิร์ฟ,8000000,30000,56,,,2,,,,13.754496,100.54253
ไอดีโอ โมบิ อโศก,10100000,,57,,,1,1,,,13.748426,100.565972
,17080000,,122,,,2,2,,,13.706545,100.506495
คิวเฮ้าส์คอนโด สุขุมวิท 79,4630000,16500,35,,,1,1,,,13.707504,100.600429
ศุภาลัย ริเวอร์ รีสอร์ท,13000000,,175,,,3,3,,,13.708888,100.495038
ชาโตว์ อินทาวน์ สุขุมวิท 62/1-2,2950000,,30,,,1,1,1,2,13.692202,100.603966
ศุภาลัย ปาร์ค อโศก-รัชดา,4000000,,50,,,1,1,,,13.756092,100.560767
,5620000,,34,,,1,1,,,13.790398,100.545904
,8910000,,61,,,1,1,,,13.756987,100.539217
ไฮฟ์ ตากสิน,5210000,,49,,,1,1,,,13.721894,100.496529
ไลฟ์ สุขุมวิท 48,4120000,,39,,,1,1,,,13.711512,100.594775
วายน์ สุขุมวิท,3830000,,30,,,1,1,,,13.712821,100.594265
,4900000,,38,,,1,1,,,13.715635,100.479962
ไอดีโอ โมบิ อโศก,6090000,,33,,,1,1,,,13.748426,100.565972
แอชตัน อโศก,9440000,,34,,,1,1,,,13.738898,100.5609
ไอดีโอ โอทู,2544544,,27,,,,1,1,1,13.673437,100.604814
โนเบิล เพลินจิต,17030000,,49,,,1,1,,,13.743764,100.54861
,9500000,,39,,,1,1,,,13.722079,100.55337
เดอะ เพรสซิเด้นท์ สาทร-ราชพฤกษ์ 1,2750000,,35,,,1,1,,,13.72043,100.458841
,6040000,,48,,,1,1,,,13.75598,100.568231
ริทึ่ม รางน้ำ,7030900,,35,,,1,1,,,13.761155,100.536971
,4100000,,29,,,1,1,,,13.722909,100.576852
ริทึ่ม รางน้ำ,11170000,,57,,,2,2,,,13.761155,100.536971
ควินน์ คอนโด รัชดา17,5830000,,45,,,1,1,,,13.786325,100.573246
ไอดีโอ โมบิ สุขุมวิท,3300000,13000,21,,,1,1,,,13.704024,100.602008
เดอะ ไลน์ จตุจักร-หมอชิต,11678000,,63,,,2,2,,,13.806244,100.556048
,13320000,,70,,,2,2,,,13.739801,100.551763
เดอะ เครสท์ สุขุมวิท 34,24000000,,79,,,2,2,,,13.725295,100.576498
ไนท์บริดจ์ ไพร์ม สาทร,5380000,,37,,,1,1,,,13.716801,100.533128
,10890000,,66,,,2,2,,,13.722909,100.576852
พาร์ค 24 เฟส 1,7750000,,38,,,1,1,,,13.725512,100.566204
ริทึ่ม รัชดา,5860000,20000,46,,,1,1,,,13.798751,100.575843
โนเบิล โซโล,7200000,35000,53,,,1,1,,,13.740159,100.585009
,24500000,,300,,,4,3,,,13.729089,100.589425
,20100000,70000,130,,,2,3,,,13.731711,100.571119
,6280000,25000,30,,,1,1,,,13.75301,100.533877
ไอวี่ รัชดา,5220000,,67,,,2,2,,,13.791,100.575942
แอชตัน จุฬา-สีลม,16880000,,63,,,2,2,,,13.731096,100.531012
ศุภาลัย ริเวอร์ รีสอร์ท,3830000,,38,,,1,1,,,13.708888,100.495038
,3510000,,43,,,1,1,,,13.711298,100.479447
ยูดีไลท์ 3 ประชาชื่น-บางซื่อ,5860000,,52,,,2,2,,,13.825056,100.537588
,5860000,28000,60,,,2,1,,,13.726498,100.572843
เออร์บาโน่ แอบโซลูท สาทร-ตากสิน,7600000,,75,,,2,2,,,13.721125,100.507202
ไอดีโอ คิว สยาม - ราชเทวี,5860000,,30,,,1,1,,,13.75301,100.533877
เดอะ ไลน์ อโศก-รัชดา,6430000,,35,,,1,1,,,13.755979,100.563553
แอสปาย สาทร-ตากสิน ทิมเบอร์ โซน,2680000,,27,,,1,1,,,13.715635,100.479962
ริทึ่ม สาทร,5876000,25000,35,,,1,1,,,13.717856,100.516763
,10310000,45000,105,,,2,2,,,13.743719,100.558658
ไนท์บริดจ์ ไพร์ม สาทร,4850000,,37,,,1,1,,,13.716801,100.533128
แอสปาย สุขุมวิท 48,3040000,15000,32,,,1,1,,,13.71118,100.593972
ริทึ่ม สาทร,7447000,,38,,,1,1,,,13.718825,100.532778
ไลฟ์ รัชดาภิเษก,7200000,,47,,,1,1,,,13.790669,100.574196
เซอร์เคิล คอนโดมิเนียม,8520000,50000,75,,,2,2,,,13.749275,100.555941
,8410000,50000,131,,,2,2,,,13.74306,100.57351
เซ็นทริค ห้วยขวาง สเตชั่น,3610000,,26,,,1,1,,,13.780297,100.573986
,5504964,,50,,,1,1,,2,,
,16600000,,72,,,2,2,,,13.719733,100.522404
,3200000,12500,45,,,1,1,1,1,13.723419,100.476232
ไอดีโอ คิว พญาไท,8100000,,45,,,1,1,,,13.755583,100.532839
เบล อเวนิว พระราม 9,6500000,,48,,,1,1,,,13.760067,100.569381
ศุภาลัย พรีเมียร์ เจริญนคร,5840000,,55,,,1,1,,,13.729919,100.5075
ไอดีโอ ท่าพระ อินเตอร์เชนจ์,2577000,,28,,,,1,,,13.728973,100.475815
,5950000,,49,,,2,2,,,13.740556,100.60006
คิวเฮ้าส์ คอนโด สาทร ,4850000,19000,41,,,1,1,,,13.72129,100.501253
วิสซ์ดอม สเตชั่น รัชดา-ท่าพระ,3627000,,33,,,1,1,,,13.713712,100.478352
ริทึ่ม รัชดา,8200000,,73,,,2,1,,,13.798751,100.575843
ลิฟ แอท ไฟว์,6241079,,47,,,1,1,,,13.743638,100.554559
,3080000,,30,,,1,1,,,13.740556,100.60006
ศุภาลัย คาซ่า ริวา,4650000,16500,66,,,1,1,,,13.69514,100.494631
The Room สุขุมวิท 64,3190000,,42,,,1,1,,,13.68622,100.604799
