CondoName,SalePrice,RentPrice,RoomArea,UnitNbr,FloorNbr,nbrBed,nbrBath,nbrPark,nbrAirCon,Latitude,Longitude
แชปเตอร์วัน มิดทาวน์ ลาดพร้าว 24,5200000,,39,,,1,1,,,13.806471,100.572747
แอสปาย พระราม 4,2600000,,28,,,,1,,,13.712091,100.584143
อีควิน๊อกซ์ พหล-วิภา,5100000,23000,40,,,1,1,,,13.809454,100.55895
เดอะ ฟ้า อารีย์,11000000,,98,,,2,2,,,13.782491,100.542372
,6500000,,51,,,2,2,,,13.722909,100.576852
ไลฟ์ รัชดาภิเษก,,20000,46,,,2,1,,,13.790669,100.574196
,2540000,,28,,,1,1,,,13.774053,100.576856
ไลฟ์ อโศก-พระราม 9 ,4650000,,35,,,1,1,,,13.754357,100.563878
,3556700,,28,,,,1,,,13.754357,100.563878
,2970000,,35,,,2,1,,,13.740556,100.60006
,11600000,45000,75,,,2,2,,,13.751953,100.533321
เดอะ ฟายน์ แอท รีเวอร์,6710000,,70,,,2,2,,,13.717451,100.508914
เดอะ เนสท์ สุขุมวิท 22,4100000,,28,,,1,1,,,13.724903,100.563369
เซ็นทริคซีน สุขุมวิท 64,4580000,,40,,,1,1,,,13.683711,100.61034
ไลฟ์ อโศก,5060000,,35,,,1,1,,,13.750283,100.564773
แอชตัน มอร์ฟ 38,16980000,,71,,,2,2,,,13.720934,100.579078
อัพ เอกมัย,6900000,,60,,,1,1,,,13.739269,100.588721
แอชตัน จุฬา-สีลม,7190000,,33,,,1,1,,,13.731096,100.531012
เดอะ ไลน์ ราชเทวี,15500000,,55,,,2,1,,,13.752446,100.533475
บ้านเจ้าพระยา,7700000,28000,78,,,2,1,,,13.732823,100.509755
,3620000,,34,,,1,1,,,13.79728,100.552184
แอสปาย สุขุมวิท 48,3500000,,38,,,1,1,,,13.71118,100.593972
แชปเตอร์วัน โมเดิร์นดัชต์,2190000,,29,,,1,1,1,2,13.675457,100.517247
คาซ่า คอนโด อโศก-ดินแดง ,2690000,,26,,,1,1,,,13.760815,100.555733
วอร์เตอร์มาร์ค เจ้าพระยา ริเวอร์,12000000,,99,,,2,2,,,13.710535,100.500849
ไซมิส เอ็กซ์คลูซีฟ สุขุมวิท 31,12380000,,53,,,1,1,,,13.738236,100.566142
,8520000,45000,74,,,2,2,,,13.720641,100.528207
,18000000,,200,,,2,3,,,13.720641,100.528207
แอชตัน อโศก,8660000,,34,,,1,1,,,13.738898,100.5609
,5960000,25000,62,,,2,1,,,13.804437,100.576231
ไอดีโอ โมบิ สาทร,4680000,,30,,,1,1,,,13.721271,100.500588
,3560000,,30,,,1,1,,,13.680549,100.610491
,6200000,,51,,,1,1,,,13.721819,100.526755
,4800000,,32,,,1,1,1,2,,
ริทึ่ม สุขุมวิท 36 – 38,5320000,20000,24,,,1,1,,,13.721609,100.576892
ไอวี่ ริเวอร์ ราษฎร์บูรณะ ,7200000,,70,,,1,1,,,13.688184,100.492293
,3650000,16000,32,,,1,1,,,13.713486,100.600417
เดอะ แบงค็อค สาทร,12490000,,68,,,1,1,,,13.71916,100.52069
โนเบิล รีวอลฟ์ รัชดา 2,3910000,,26,,,1,1,,,13.763628,100.569442
,9450000,,75,,,2,2,,,13.725077,100.568533
333 ริเวอร์ไซด์,7450000,,46,,,1,1,,,13.806523,100.51946
,5700000,,30,,,,1,,,13.722468,100.58455
,14070000,,70,,,2,2,,,13.722468,100.58455
,3510000,,22,,,,1,,,,
,2780000,,33,,,,1,,,13.711298,100.479447
เมโทร ปาร์ค สาทร,2030000,10000,30,,,1,1,,,13.709118,100.451345
ไฮด์ สุขุมวิท,8800000,38000,50,,,1,1,,,13.740361,100.557288
ไพน์ บาย แสนสิริ,21050000,45000,68,,,2,2,,,13.751878,100.531214
ริทึ่ม รางน้ำ,7200000,,35,,,1,1,,,13.761155,100.536971
เดอะ เครสท์ สุขุมวิท 34,13920000,52000,53,,,1,1,,,13.725295,100.576498
เอ็ม ทองหล่อ 10,20000000,150000,67,,,1,1,,,13.730773,100.586811
วิลล่า สาทร,11710000,,106,,,2,2,,,13.721234,100.504148
โนเบิล เพลินจิต,13100000,45000,47,,,1,1,,,13.743764,100.54861
เดอะทรี อินเตอร์เชนจ์,2750000,10000,32,,,1,1,,,13.805573,100.525556
วิช ซิกเนเจอร์ มิดทาวน์ สยาม,4330000,,27,,,1,1,,,13.751983,100.534693
วิลล่า สาทร,4470000,,42,,,1,1,,,13.721234,100.504148
เดอะ ดิโพลแมท 39,14200000,,54,,,1,1,,,13.731507,100.570729
เดอะ ไลน์ จตุจักร-หมอชิต,11140000,,57,,,2,2,,,13.806244,100.556048
,3630000,,34,,,1,1,,,13.740556,100.60006
แอชตัน สีลม,23720000,,87,,,2,2,,,13.726391,100.526828
ศุภาลัย พรีเมียร์ รัชดาฯ-นราธิวาส-สาทร,7130000,,82,,,2,2,,,13.698521,100.541421
,3610000,,26,,,1,1,,,13.75598,100.568231
มาเอสโตร 07 อนุสาวรีย์,4433000,,27,,,1,1,,,13.755287,100.530902
,8000000,35000,68,,,2,2,,,13.723602,100.526755
วอเตอร์ฟอร์ต สุขุมวิท 50,3100000,,50,,,1,1,,,13.707054,100.593744
,18000000,,128,,,2,2,,,13.706545,100.506495
ไอดีโอมิกซ์ สุขุมวิท 103 ,3500000,,31,,,1,1,,,13.680549,100.610491
ไนท์บริดจ์ ไพร์ม สาทร,7009000,,44,,,1,1,,,13.716801,100.533128
,26780000,,83,,,2,2,,,13.731507,100.570729
ศุภาลัย พรีเมียร์ @ อโศก,8500000,,80,,,2,2,,,13.744737,100.562745
,5580000,,35,,,1,1,,,13.755979,100.563553
เดอะทรี อินเตอร์เชนจ์,2670000,,30,,,1,1,,,13.805573,100.525556
,19000000,,261,,,3,3,,,13.72113,100.565499
ริทึ่ม อโศก 2,5000000,18000,28,,,1,1,,,13.75391,100.564837
333 ริเวอร์ไซด์,6800000,,46,,,1,1,,,13.806523,100.51946
,18600000,70000,70,,,2,2,,,13.719796,100.522059
,10800000,,84,,,2,2,,,13.722625,100.538722
แอสปาย รัชดา–วงศ์สว่าง,2480000,,26,,,1,1,,,13.830736,100.525306
ไอดีโอบลูโคฟ สุขุมวิท ,7000000,40000,45,,,2,1,,1,13.678583,100.608794
,6800000,40000,100,,,2,2,,,13.746928,100.556054
,7310000,,47,,,1,1,,,13.795858,100.550205
ริทึ่ม สุขุมวิท 44/1,7750000,32000,45,,,1,1,,,13.715212,100.590594
รีเจ้นท์ โฮม 19 สุขุมวิท 93,2000000,,31,,,1,1,1,1,13.700282,100.608404
เดอะ ฟ้า อารีย์,11000000,,98,,,2,2,,,13.782491,100.542372
,4460000,,34,,,1,1,,,13.698563,100.604805
,8130000,,37,,,1,1,,,13.743168,100.561734
เดอะ ไลน์ จตุจักร-หมอชิต,4780000,,27,,,1,1,,,13.806244,100.556048
,6590000,,42,,,2,1,,,13.754267,100.564468
ไอดีโอเวิร์ฟ,8000000,30000,56,,,2,1,,,13.754496,100.54253
ลุมพินี พาร์ค ริเวอร์ไซด์ พระราม 3	,3520000,,33,,,1,1,,,13.679026,100.527594
ริทึ่ม รัชดา-ห้วยขวาง,5830000,,45,,,1,1,,,13.77788,100.573958
,14280000,,70,,,2,1,,,13.722468,100.58455
ไลฟ์ รัชดาภิเษก,4050000,,31,,,1,1,,,13.790669,100.574196
เดอะ ไลน์ พหลโยธิน-ประดิพัทธ์,4500000,,26,,,1,1,,,13.790398,100.545904
เซนทริค อารี สเตชั่น,5600000,,28,,,1,1,,,13.777891,100.542455
ไอดีโอ สุขุมวิท 93,4560000,,34,,,1,1,,,13.698563,100.604805
เดอะ พาร์คแลนด์ ตากสิน-ท่าพระ,4050000,14000,40,,,1,1,,,13.716321,100.480608
นิช ไพรด์ ทองหล่อ-เพชรบุรี,6400000,,59,,,2,2,,,13.744899,100.583468
เซอร์เคิล คอนโดมิเนียม,5700000,,48,,,1,1,,,13.749275,100.555941
นาวีเพลส,1900000,,41,,2,2,1,1,2,13.699626,100.68021
ไอดีโอ คิว ราชเทวี,9100000,,50,,,2,1,,,13.75282,100.533865
,4790000,17000,38,,,1,1,,,13.795069,100.550558
ริเวอร์เฮเว่น คอนโดมิเนียม,5200000,,61,,,2,1,,,13.695135,100.494629
,6500000,,110,,,2,2,,,13.705526,100.544263
,13900000,70000,87,,,2,2,,,13.73873,100.541509
เดอะทรี พริวาต้า,2300000,,27,,,1,1,1,2,13.777905,100.528691
เดอะ ไลน์ อโศก-รัชดา,5780000,,35,,,1,1,,,13.755979,100.563553
เดอะ เซนต์ เรสิเดนเซส ,4050000,,30,,,1,1,,,13.811758,100.560022
,17500000,,61,,,1,1,,,13.726193,100.569733
เอ สเปซ ไอดี อโศก-รัชดา,4790000,,33,,,1,1,,,13.756804,100.560239
,4880000,19000,46,,,1,1,,,13.810582,100.565777
ไอดีโอ รัชดา-ห้วยขวาง,3000000,,26,,,1,1,,,13.778353,100.57407
,5620000,18000,39,,,1,1,,,13.809454,100.55895
ไลฟ์ อโศก,3900000,,29,,,1,1,,,13.750283,100.564773
โนเบิล รีโคล สุขุมวิท 19,6700000,,35,,,1,1,,,13.742184,100.559938
ไอดีโอ โมบิ พระราม 9,6710000,,46,,,1,1,,,13.755643,100.565972
,8700000,,83,,,2,2,,,13.790921,100.574658
,3600000,,40,,,1,1,,,13.803648,100.577779
คิว ชิดลม-เพชรบุรี,21017000,,110,,,2,2,,,13.749404,100.543869
ศุภาลัย ปาร์ค อโศก-รัชดา,5750000,,50,,,2,1,,,13.756092,100.560767
,4110000,,30,,,,1,,,13.807705,100.57118
ไอวี แอมพิโอ,9150000,,43,,,1,1,,,13.762857,100.568267
,13310000,,50,,,1,1,,,13.738779,100.561802
,2980000,,34,,,1,1,,,13.713167,100.471447
นิมิตร หลังสวน,50000000,,128,,,3,3,,,13.735221,100.54161
ดิ แอดเดรส อโศก,6920000,25000,45,,,1,1,,,13.749514,100.561981
แอชตัน จุฬา-สีลม,14650000,,63,,,2,2,,,13.731096,100.531012
,4120000,,29,,,1,1,,,13.722909,100.576852
ไอดีโอ คิว ราชเทวี,5980000,,34,,,1,1,,,13.75282,100.533865
นิมิตร หลังสวน,50000000,,128,,,3,3,,,13.735221,100.54161
ริทึ่ม รางน้ำ,6710000,,35,,,1,1,,,13.761155,100.536971
,8830000,,48,,,1,1,,,13.739801,100.551763
วอร์เตอร์มาร์ค เจ้าพระยา ริเวอร์,12500000,65000,145,,,3,3,,,13.710535,100.500849
นายน์ บาย แสนสิริ,5531000,18000,33,,,1,1,,,13.721807,100.497809
,5500000,20000,30,,,1,1,,,13.818953,100.532139
เอดจ์ สุขุมวิท 23,15060000,,62,,,2,1,,,13.736521,100.563365
,7980000,28000,45,,,1,1,,,13.715212,100.590594
,14062000,,81,,,2,2,,,13.681605,100.609846
ไอดีโอ คิว สยาม - ราชเทวี,6910000,,34,,,1,1,,,13.75301,100.533877
เดอะ เพรสซิเด้นท์ สาทร-ราชพฤกษ์ 1,2700000,12000,30,,,1,1,,,13.72043,100.458841
เดอะทรี สุขุมวิท 71-เอกมัย,2900000,,30,,,1,1,,,13.740556,100.60006
ไอดีโอเวิร์ฟ,,,57,,,1,1,,,13.754496,100.54253
ศุภาลัย ปาร์ค เอกมัย-ทองหล่อ,6700000,,71,,,2,2,,,13.742941,100.58898
,5350000,,46,,,1,1,,,13.790669,100.574196
ไอวี่ รัชดา,4130000,25000,42,,,1,1,,,13.791,100.575942
เมโทร ปาร์ค สาทร,2340000,,30,,,1,1,,,13.709118,100.451345
,35000,,55,,,1,1,,,13.724428,100.581965
,10630000,,91,,,2,2,,,13.720641,100.528207
แอชตัน อโศก,10825000,,34,,,1,1,,,13.738898,100.5609
ทรูทองหล่อ,4200000,18000,36,,,1,1,,,13.744202,100.58534
ไนท์บริดจ์ ไพร์ม สาทร,6850000,,31,,,1,1,,,13.716801,100.533128
วิช ซิกเนเจอร์ มิดทาวน์ สยาม,6810000,,33,,,1,1,,,13.751983,100.534693
ฟิวส์ จันทน์-สาทร,3600000,13000,35,,,1,1,,,13.705683,100.530433
แอสปาย สาทร-ตากสิน ทิมเบอร์ โซน,3050000,,31,,,1,1,,,13.715635,100.479962
,3450000,35000,68,,,1,1,,,13.721248,100.517142
The Room สาทร-ตากสิน,6900000,,69,,,2,2,,,13.717746,100.483477
,3500000,,58,,,2,1,,,100.534535,13.690853
เดอะ ไลน์ จตุจักร-หมอชิต,19450000,,104,,,2,2,,,13.806244,100.556048
วอเตอร์ฟอร์ต สุขุมวิท 50,3100000,,50,,,1,1,,,13.707054,100.593744
ลิฟ แอท 49,9900000,42000,53,,,1,1,,,13.728634,100.575585
แชปเตอร์วัน อีโค รัชดา - ห้วยขวาง,3100000,,23,,,1,1,,,13.772054,100.579979
บ้านปทุมวัน,6920000,,61,,,1,1,,,13.754696,100.534251
,11390000,40000,117,,,3,2,,,13.716479,100.546879
นิช ไพรด์ ทองหล่อ-เพชรบุรี,6400000,,59,,,2,2,,,13.744899,100.583468
เดอะรีเซิร์ฟ เกษมสันต์ 3,5470000,,28,,,1,1,,,13.749074,100.527364
แมกโนเลียส์ วอเตอร์ฟรอนท์ เรสซิเดนซ์ ณ ไอคอนสยาม,39500000,,144,,,3,3,,,13.727956,100.511167
คาซ่า คอนโด อโศก-ดินแดง ,3200000,,31,,,1,1,,,13.760815,100.555733
โนเบิลเฮ้าส์ พญาไท,6955000,,40,,,1,1,,,13.757169,100.5354
โนเบิล รีโว สีลม,4979000,23000,34,,,1,1,,,13.719509,100.519492
ฮาร์โมนีลิฟวิ่ง,7648660,,86,,,2,1,,,13.787424,100.546179
ริทึ่ม อโศก 2,4300000,,28,,,1,1,,,13.75391,100.564837
ไลฟ์ อโศก,4150000,,29,,,1,1,,,13.750283,100.564773
เลอนีซ เอกมัย,6600000,32000,65,,,1,1,,,13.725724,100.585371
,5050000,,29,,,1,1,,,13.731878,100.526063
โอกะ เฮ้าส์ สุขุมวิท 36,3940000,,27,,,1,1,,,13.71581,100.574985
เวีย 49,6400000,,35,,,1,1,,,13.730276,100.575962
ไซมิส ราชครู,4990000,,31,,,1,1,,,13.775756,100.543072
333 ริเวอร์ไซด์,5870000,,46,,,1,1,,,13.806523,100.51946
วิสซ์ดอม สเตชั่น รัชดา-ท่าพระ,3810000,,33,,,1,1,,,13.713712,100.478352
เอช สุขุมวิท 43,14100000,65000,74,,,2,2,,,13.732767,100.574008
วิสซ์ดอม สเตชั่น รัชดา-ท่าพระ,3400000,,28,,,,1,,,13.713712,100.478352
ดี 25 ทองหล่อ,4400000,18000,36,,,1,1,,,13.739114,100.582741
แอชตัน จุฬา-สีลม,5260000,,26,,,,1,,,13.731096,100.531012
,8250000,,38,,,1,1,,,13.748244,100.562727
ลุมพินี พาร์ค พระราม 9-รัชดา,2190000,,26,,2,1,1,,1,13.607016,100.516091
,7240000,,50,,,2,2,,,13.695377,100.605772
เดอะ เทอร์ตี้ไนน์ ,22900000,,88,,,2,2,,,13.731693,100.570747
,5400000,,34,,,1,1,,,13.831586,100.570987
คีนน์ บาย แสนสิริ,6900000,30000,35,,,1,1,,,13.724993,100.576933
ไอดีโอโมบิ วงศ์สว่าง-อินเตอร์เชนจ์,3160000,,25,,,1,1,,,13.818953,100.532139
ศุภาลัย เอลีท แอท พญาไท,11400000,,84,,,2,2,,,13.756987,100.539217
,9000000,,33,,,1,1,,,13.719733,100.522404
เอดจ์ สุขุมวิท 23,15500000,,60,,,2,2,,,13.736521,100.563365
คาซ่า คอนโด อโศก-ดินแดง ,3190000,14000,30,,,1,1,,,13.760815,100.555733
,6200000,,144,,,4,2,2,6,,
รีสอร์ทต้า เย็นอากาศ,4800000,,63,,,2,1,,,13.711296,100.549026
คิวเฮ้าส์คอนโด สุขุมวิท 79,5520000,,30,,,1,1,,,13.707504,100.600429
,4000000,15000,37,,,1,1,,,13.777745,100.538475
,4070000,,36,,,1,1,,,13.75598,100.568231
ปทุมวัน โอเอซิส เกษมสันต์ 3,25000000,90000,211,,,3,3,,,13.748261,100.527275
,4320000,,32,,,1,1,,,13.714298,100.602336
ดิแอดเดรสสยาม,13830000,45000,98,,,3,2,,,13.752146,100.534294
สตาร์วิว พระราม 3,12234000,32500,77,,,2,2,,,13.687433,100.517984
,4390000,,25,,,,1,,,13.795858,100.550205
ชีวาทัย เรสซิเดนซ์ อโศก,5500000,,37,,,1,1,,,,
,8300000,50000,85,,,2,2,,,13.739551,100.543452
ศุภาลัย ริเวอร์ รีสอร์ท,35000000,,253,,,3,5,,,13.708888,100.495038
,6550000,,35,,,1,1,,,13.761155,100.536971
สกาย วอล์ค คอนโดมิเนียม,8200000,39000,53,,,1,1,,,13.714246,100.593478
,4190000,,30,,,1,1,,,13.711512,100.594775
The Room พระราม 4,7660000,,45,,,1,1,,,13.736319,100.52076
คอนโดเลต ไอซ์ ราชเทวี,5500000,,31,,,1,1,,,13.753338,100.530981
,4580000,18000,41,,,1,1,,,13.717117,100.589111
ควินน์ คอนโด รัชดา17,4650000,,34,,,1,1,,,13.786325,100.573246
เดอะ ไลน์ จตุจักร-หมอชิต,7302000,,35,,,1,1,,,13.806244,100.556048
ไลฟ์ สุขุมวิท 48,3350000,,30,,,1,1,,,13.711512,100.594775
เดอะ ลุมพินี 24,25500000,,158,,,3,2,,,13.722535,100.566242
ลุมพินีเพลส นราธิวาส 24,2200000,,30,,,1,1,,,13.700312,100.535149
ไฮฟ์ สาทร,10000000,,70,,,2,2,,,13.721524,100.502324
บีทนิค สุขุมวิท 32,16500000,,59,,,1,1,,,13.726547,100.575382
เอลลิโอ เดล เรย์ สุขุมวิท 64,1790000,,24,,,,1,1,1,13.683824,100.604422
,7200000,,35,,,1,1,,,13.722468,100.58455
,7000000,,83,,,2,1,,,13.730275,100.579374
แชปเตอร์วัน อีโค รัชดา - ห้วยขวาง,3090000,12000,29,,,1,1,,,13.838641,100.574456
ไอดีโอ โมบิ พระราม 9,3510000,,21,,,,1,,,13.755643,100.565972
,4850000,22000,24,,,1,1,,,13.721609,100.576892
,2850000,13000,30,,,1,1,,,13.753416,100.576341
ไรซ์ พระราม 9,240000,,29,,,1,1,,2,13.603822,100.783094
ไอดีโอ คิว พญาไท,8350000,30000,46,,,1,1,,,13.755583,100.532839
ไลฟ์ แอท รัชดา-ห้วยขวาง,3150000,14000,30,,,1,1,,,13.778809,100.574207
โนเบิล รีวอลฟ์ รัชดา,3850000,,26,,,1,1,,,13.763691,100.569463
ริทึ่ม รัชดา,5860000,,46,,,1,1,,,13.798751,100.575843
ไลฟ์ อโศก,3820000,,24,,,1,1,,,13.750283,100.564773
,5000000,,40,,,1,1,,,13.769198,100.578202
มาเอสโตร 07 อนุสาวรีย์,4150000,,27,,,,1,,,13.755287,100.530902
ไลฟ์ อโศก-พระราม 9 ,8312100,,58,,,2,2,,,13.754357,100.563878
ไอดีโอ สาทร-ท่าพระ,3085000,,22,,,,1,,,13.717258,100.482319
ดิ ไอริส พระราม 9-ศรีนครินทร์,2100000,,39,,,1,1,1,2,13.744653,100.64344
เดอะ แบงค็อค สาทร,31920000,,128,,,2,2,,,13.71916,100.52069
เดอะ คีย์ สาทร-เจริญราษฎร์,3300000,15000,33,,,1,1,,,13.701033,100.516013
วิสซ์ดอม สเตชั่น รัชดา-ท่าพระ,3700000,,31,,,,1,,,13.713712,100.478352
เดอะ ลุมพินี 24,14470000,48000,54,,,2,2,,,13.722535,100.566242
แอสปาย พระราม9,3860000,18000,38,,,1,1,,,13.754805,100.566923
ไอดีโอ สุขุมวิท 93,3500000,,25,,,,1,,,13.698563,100.604805
ไซมิส ราชครู,8990000,,60,,,2,2,,,13.775756,100.543072
โนเบิล รีมิกซ์,7590000,30000,44,,,1,1,,,13.724502,100.577252
ริทึ่ม สาทร,6050000,,39,,,1,1,,,13.718825,100.532778
ลุมพินีเพลสรามอินทรา-หลักสี่,2500000,10000,34,,,1,1,1,1,13.871889,100.602432
ณ วรา เรสซิเดนซ์,10800000,,44,,,1,1,,,13.741869,100.544394
ไอดีโอ โมบิ พระราม 9,4790000,,40,,,1,1,,,13.755643,100.565972
,3710000,,26,,,1,1,,,13.698563,100.604805
,5720000,,36,,,1,1,,,13.75598,100.568231
ไลฟ์ สุขุมวิท 48,4520000,,40,,,1,1,,,13.711512,100.594775
เดอะ เพรสซิเดนท์ สาทร-ราชพฤกษ์ 2,2790000,12000,30,,,1,1,,,13.719384,100.458654
เดอะ บลูม สุขุมวิท 71,3700000,15000,35,,,1,1,1,2,13.714104,100.594619
ไอดีโอ โมบิ อโศก,6190000,,33,,,1,1,,,13.748426,100.565972
ควอด สาทร,2790000,15000,29,,,,1,,,13.717384,100.530653
,9790000,,68,,,2,2,,,13.695377,100.605772
นายน์ บาย แสนสิริ,4255000,19000,32,,,1,1,,,13.721807,100.497809
,1990000,15000,28,,,1,1,,,,
,5210000,,26,,,1,1,,,13.75598,100.568231
ไอดีโอ สุขุมวิท 93,4609000,,35,,,1,1,,,13.698563,100.604805
,6155000,,30,,,,1,,,13.722468,100.58455
,6920000,23000,50,,,1,1,,,13.735139,100.540489
ดี เอส ทาวเวอร์ 1,21500000,,240,,,,3,,,13.737304,100.568473
,3278000,,30,,,1,1,,,13.788697,100.553204
,11000000,55000,54,,,1,1,,,13.731693,100.570747
ริทึ่ม อโศก 2,4640000,,28,,,1,1,,,13.75391,100.564837
ไอดีโอเวิร์ฟ,7660000,,59,,,1,1,,,13.754496,100.54253
,12000000,60000,54,,,1,1,,,13.727726,100.575105
,4560000,,36,,,1,1,,,13.798751,100.575843
,5320000,23000,41,,,1,1,,,13.723602,100.526755
อมรันทา เรสซิเดนซ์,1200000,,41,,,1,1,1,1,13.77892,100.576259
,9240000,,33,,,1,1,,,13.719733,100.522404
เอ็ม ลาดพร้าว ,6800000,,37,,,1,1,,,13.816314,100.562093
ฟิวส์ สาทร - ตากสิน,5320000,25000,36,,,1,1,,,13.720432,100.496983
เบล อเวนิว พระราม 9,13830000,,77,,,2,1,,,13.760067,100.569381
เซ็นทริค รัชดา-สุทธิสาร,3520000,13000,31,,,1,1,,,13.789912,100.573599
แอชตัน จุฬา-สีลม,5290000,,25,,,1,1,,,13.731096,100.531012
เดอะทรี อินเตอร์เชนจ์,2520000,,35,,,1,1,,,13.805573,100.525556
เอ สเปซ อโศก-รัชดา,2130000,9000,31,,,1,1,,,13.75685,100.560255
เดอะ ริเวอร์,22880000,72000,110,,,3,3,,,13.721558,100.510307
เดอะ ซี้ด เมมโมรี่ สยาม,10310000,35000,52,,,1,1,,,13.747857,100.528447
ศุภาลัย เวลลิงตัน 2,3350000,,45,,,1,1,,,13.767032,100.578865
โอกะ เฮ้าส์ สุขุมวิท 36,7500000,,41,,,2,1,,,13.71581,100.574985
,3350000,,37,,,1,1,,,13.712091,100.584143
,3900000,,29,,,1,1,,,13.724903,100.563369
เดอะ เพรสซิเด้นท์ สาทร-ราชพฤกษ์ 1,2750000,,35,,,1,1,,,13.72043,100.458841
เดอะ เทอร์ตี้ไนน์ ,25760000,90000,82,,,2,2,,,13.73221,100.570896
,7100000,,33,,,1,1,,,13.731096,100.531012
คาซ่า คอนโด รัชดา-ราชพฤกษ์ ,2819200,,26,,,1,1,,,13.713727,100.476237
ศุภาลัย ริเวอร์ รีสอร์ท,24210000,,175,,,3,4,,,13.708888,100.495038
,4320000,,29,,,1,1,,,13.722909,100.576852
ซิตี้สมาร์ท สุขุมวิท 18,11700000,70000,119,,,3,3,,,13.735016,100.562227
,6180000,22000,63,,,1,1,,,13.68844,100.549071
ไลฟ์ สุขุมวิท 48,3640000,,33,,,1,1,,,13.711512,100.594775
โนเบิล บี ไนน์ทีน,14360000,,59,,,2,1,,,13.74228,100.559167
,960000,6500,31,,,1,1,1,1,13.727155,100.514509
อมันตา รัชดา,9420000,,85,,,2,2,,,13.765215,100.567935
เดอะ สตาร์ เอสเตท พระราม 3,7240000,,104,,,3,3,,,13.674774,100.534755
โนเบิล รีวอลฟ์ รัชดา 2,4400000,,25,,,1,1,1,1,13.763829,100.569557
คอนโด วัน เอ็กซ์ สาทร-นราธิวาส,6000000,20000,74,,,2,2,,,13.699973,100.535977
เซ็นทริค รัชดา-สุทธิสาร,3720000,,31,,,1,1,,,13.789912,100.573599
,3050000,12000,26,,,1,1,,,13.712959,100.600039
,4020000,,26,,,1,1,,,13.763628,100.569442
,5000000,,24,,,,1,,,13.721609,100.576892
,7980000,,120,,,2,2,,,13.697412,100.540629
,14900000,80000,120,,,2,2,,,13.73873,100.541509
แอสปาย รัชดา–วงศ์สว่าง,4130000,,45,,,2,1,,,13.830736,100.525306
ศุภาลัย พรีมา ริวา,5700000,,58,,,1,1,,,13.68844,100.549071
ไอดีโอ บลูโคฟ สาทร,6383000,,68,,,2,2,,,13.721972,100.495807
เอดจ์ สุขุมวิท 23,6810000,,32,,,1,1,,,13.736521,100.563365
เอช สุขุมวิท 43,9990000,45000,44,,,1,1,,,13.732767,100.574008
แอชตัน จุฬา-สีลม,7190000,,33,,,1,1,,,13.731096,100.531012
ยูดีไลท์ 3 ประชาชื่น-บางซื่อ,2700000,12000,32,,,1,1,,,13.825056,100.537588
ไลฟ์ อโศก,4300000,,29,,,1,1,,,13.750283,100.564773
ศุภาลัย พรีเมียร์ รัชดาฯ-นราธิวาส-สาทร,3850000,,52,,,1,1,,,13.698521,100.541421
ไนท์บริดจ์ ไพร์ม สาทร,5300000,,37,,,1,1,,,13.716801,100.533128
เดอะทรี สุขุมวิท 71-เอกมัย,3400000,,36,,,1,1,,,13.740556,100.60006
ไอดีโอ คิว สยาม - ราชเทวี,5860000,,30,,,1,1,,,13.75301,100.533877
เดอะ ลอฟท์ อโศก,10310000,,49,,,1,1,,,13.746769,100.562783
ยู ดีไลท์ เรสซิเดนซ์ ริเวอร์ฟรอนท์ พระราม 3,3710000,,34,,,1,1,,,13.675303,100.532792
วิลล่าอโศก,5500000,20000,40,,,1,1,,,13.748849,100.561572
ริทึ่ม สาทร,5360000,35000,38,,,1,1,,,13.717856,100.516763
เดอะ สเตจ เตาปูน-อินเตอร์เชนจ์,2630000,,26,,,1,1,,,13.806258,100.526553
ควอทโทร บาย แสนสิริ,23700000,,86,,,2,2,,,13.727561,100.581708
ไอดีโอ ท่าพระ อินเตอร์เชนจ์,2500000,,28,,,,1,,,13.728973,100.475815
ไอดีโอโมบิ วงศ์สว่าง-อินเตอร์เชนจ์,3770000,,30,,,1,1,,,13.818953,100.532139
,10960000,,80,,,1,1,,,13.71932,100.584445
คิว คอนโด อโศก ,6600000,30000,32,,,1,1,,,13.748244,100.562727
เดอะ ริเวอร์,65000000,,325,,,5,5,,,13.721558,100.510307
วิลล่าอโศก,6480000,25000,49,,,1,1,,,13.748849,100.561572
เดอะ ไลน์ จตุจักร-หมอชิต,6430000,,34,,,1,1,,,13.806244,100.556048
เดอะ เทรนดี้ คอนโดมิเนียม,7420000,35000,65,,,1,1,,,13.740529,100.5579
ไบร์ท วงเวียนใหญ่,4190000,,35,,,1,1,,,13.719524,100.490599
ริทึ่ม รางน้ำ,6800000,,35,,,1,1,,,13.761155,100.536971
เดอะ ริเวอร์,17000000,75000,101,,,2,2,,,13.721558,100.510307
เอดจ์ สุขุมวิท 23,6800000,,32,,,1,1,,,13.736521,100.563365
ไลฟ์ อโศก,4840000,,35,,,1,1,,,13.750283,100.564773
,6360000,,35,,,1,1,,,13.729079,100.591623
ไลฟ์ อโศก,6440000,,45,,,2,1,,,13.750283,100.564773
เดอะ สเตชั่น สาทร-บางรัก,2900000,13500,38,,,1,1,,,13.713076,100.514433
,8256000,,38,,,1,1,,,13.722079,100.55337
เดอะ ไลน์ จตุจักร-หมอชิต,6530000,,35,,,1,1,,,13.806244,100.556048
เรนด์ สุขุมวิท 23,5500000,,37,,,1,1,,,13.739106,100.564245
เดอะ ลุมพินี 24,12770000,48000,54,,,2,2,,,13.722535,100.566242
ไลฟ์ อโศก,4180000,,29,,,1,1,,,13.750283,100.564773
เอดจ์ สุขุมวิท 23,21280000,60000,64,,,2,2,,,13.736521,100.563365
ศุภาลัย ลอฟท์ @ สถานีตลาดพลู,5276000,,65,,,2,2,,,13.711298,100.479447
เมโทร ปาร์ค สาทร,2350000,10000,42,,,1,1,,,13.709118,100.451345
ไอดีโอ คิว จุฬา-สามย่าน,4700000,,29,,,1,1,,,13.733349,100.527144
วายน์ สุขุมวิท,4790000,,35,,,1,1,,,13.712821,100.594265
ไอดีโอ คิว ราชเทวี,8790000,,49,,,2,1,,,13.75282,100.533865
,25000000,,99,,,2,2,,,13.730679,100.581681
ลุมพินี พาร์ค พระราม 9-รัชดา,2190000,,26,,2,1,1,,1,13.607016,100.516091
,3800000,17000,35,,,1,1,,,13.778353,100.57407
The Room พระราม 4,8140000,30000,45,,,1,1,,,13.736319,100.52076
ศุภาลัย เอลีท แอท พญาไท,7390000,,61,,,1,1,,,13.756987,100.539217
วิลล่า ราชเทวี,13000000,,79,,,1,1,,,13.754345,100.532544
แอชตัน สีลม,18470000,,72,,,2,2,,,13.726391,100.526828
,7350000,,36,,,1,1,,,13.75598,100.568231
ไอดีโอโมบิ วงศ์สว่าง-อินเตอร์เชนจ์,2770000,,22,,,1,1,,,13.818953,100.532139
ริทึ่ม รัชดา-ห้วยขวาง,6070000,,46,,,1,1,,,13.77788,100.573958
,5600000,,34,,,1,1,,,13.795858,100.550205
ริทึ่ม สุขุมวิท 36 – 38,6700000,,33,,,1,1,,,13.721609,100.576892
เดอะ ลุมพินี 24,12240000,,55,,,2,2,,,13.722535,100.566242
ไอดีโอ สุขุมวิท 93,3385000,,26,,,1,1,,,13.698563,100.604805
ฟิวส์ จันทน์-สาทร,3970000,,35,,,1,1,,,13.705683,100.530433
เดอะ โมนูเมนต์ สนามเป้า,11519000,,46,,,1,1,,,13.76945,100.540555
,5870000,,36,,,1,1,,,13.75598,100.568231
The Room สาทร,8490000,,50,,,1,1,,,13.722459,100.523549
ฟิวส์ จันทน์-สาทร,2400000,,26,,,1,1,,,13.705683,100.530433
เออร์บาโน่ แอบโซลูท สาทร-ตากสิน,4500000,23000,38,,,1,1,,,13.721125,100.507202
ไอดีโอ สุขุมวิท 93,4609000,,35,,,1,1,,,13.698563,100.604805
,2430000,,35,,,1,1,,,13.711298,100.479447
,4220000,,28,,,1,1,,,13.755979,100.563553
,6100000,25000,62,,,2,1,,,13.804437,100.576231
โนเบิล เพลินจิต,13100000,45000,47,,,1,1,,,13.743764,100.54861
เดอะ เทมโป แกรนด์ สาทร-วุฒากาศ,2940000,,31,,,1,1,,,13.712604,100.467943
โนเบิล เพลินจิต,15960000,40000,46,,,1,1,,,13.743764,100.54861
,2410000,,27,,,1,1,,,13.740556,100.60006
,7990000,,37,,,1,1,,,13.722079,100.55337
แอชตัน อโศก,8470000,,31,,,1,1,,,13.738898,100.5609
ไอดีโอเวิร์ฟ,6760000,20000,37,,,1,1,,,13.754496,100.54253
,1250000,,31,,,1,1,1,1,13.710591,100.450174
,4050000,,28,,,1,1,,,13.718225,100.549333
,3910000,,33,,,,1,,,13.721383,100.577847
เซอร์เคิล เอส สุขุมวิท 12,5060000,,35,,,1,1,,,13.735159,100.557922
เดอะ พาร์คแลนด์ ตากสิน-ท่าพระ,2880000,,40,,,1,1,,,13.716554,100.480646
เดอะทรี สุขุมวิท 71-เอกมัย,3130000,,30,,,1,1,,,13.740556,100.60006
ริทึ่ม รัชดา,5300000,18000,47,,,1,1,,,13.798751,100.575843
สตาร์วิว พระราม 3,10320000,,82,,,2,2,,,13.687433,100.517984
,2650000,,24,,,,1,,,13.715635,100.479962
แม่น้ำ เรสซิเดนท์,8320000,,55,,,1,1,,,13.705249,100.506916
ริทึ่ม อโศก 2,4420000,,28,,,1,1,,,13.75391,100.564837
เดอะ ไลน์ จตุจักร-หมอชิต,4920000,,26,,,1,1,,,13.806244,100.556048
,4900000,,27,,,1,1,,,13.718089,100.58494
,9890000,36000,68,,,2,1,,,13.760067,100.569381
สาทรพลัส บายเดอะการ์เดนท์,5640000,,73,,,2,2,,,13.715739,100.547055
,12800000,65000,125,,,2,2,,,13.720641,100.528207
,7680000,,26,,,1,1,,,13.725512,100.566204
,8510000,,73,,,2,2,,,13.734664,100.584833
,2500000,,22,,,,1,,,13.717258,100.482319
,2490000,,54,,,1,1,1,1,,
ฮิว สุขุมวิท,2990000,,27,,,1,1,,,13.689117,100.60886
,2770000,11000,28,,,1,1,,,13.712813,100.582698
ดิ อิสสระ ลาดพร้าว,6280000,,52,,,2,1,,,13.80886,100.567982
ไลฟ์ อโศก-พระราม 9 ,6086000,,40,,,1,1,,,13.754357,100.563878
,3000000,,42,,,1,1,,,13.755402,100.582378
โนเบิล รีวอลฟ์ รัชดา 2,7750000,,39,,,2,1,,,13.763628,100.569442
ไอดีโอ วุฒากาศ,3310000,,30,,,1,1,,,13.714664,100.467627
ไอดีโอ คิว สยาม - ราชเทวี,6570000,,34,,,1,1,,,13.75301,100.533877
,6810000,,54,,,2,2,,,13.701033,100.516013
,9120000,,38,,,1,1,,,13.722079,100.55337
ลุมพินี วิลล์ ประชาชื่น-พงษ์เพชร 2,1850000,,27,,15,1,1,1,1,13.845688,100.542549
เอ็ม จตุจักร,4240000,,32,,,1,1,,,13.797477,100.55176
,6590000,,41,,,1,1,,,13.75598,100.568231
วิลล่าอโศก,10165000,,80,,,1,2,,,13.748849,100.561572
,3360000,,32,,,1,1,,,13.678767,100.615866
,7600000,,70,,,2,2,,,13.742912,100.570998
อิซซี่ คอนโด สุขสวัสดิ์,2130000,,32,,,1,1,,,13.6817,100.493257
แอสปาย รัชดา–วงศ์สว่าง,2110000,,26,,,1,1,,,13.830736,100.525306
333 ริเวอร์ไซด์,7100000,,46,,,1,1,,,13.806523,100.51946
ไลฟ์ แอท รัชดา-ห้วยขวาง,4470000,16000,41,,,1,1,,,13.778809,100.574207
ไอดีโอ โมบิ พระราม 9,6600000,,46,,,2,1,,,13.755643,100.565972
,2970000,,30,,,1,1,,,13.740556,100.60006
,5960000,,35,,,1,1,,,,
ริทึ่ม รัชดา,5780000,,45,,,1,1,,,13.798751,100.575843
,89900000,,368,,,4,5,,,13.729288,100.562496
เอดจ์ สุขุมวิท 23,15500000,,63,,,2,2,,,13.736521,100.563365
,2990000,,30,,,1,1,,,13.710945,100.602343
,5800000,,36,,,1,1,,,13.717856,100.516763
เอ็ม จตุจักร,4870000,,32,,,1,1,,,13.797477,100.55176
โนเบิลเฮ้าส์ พญาไท,6600000,,33,,,1,1,,,13.757169,100.5354
,7340000,25000,33,,,1,1,,,13.743472,100.554339
,9578100,,51,,,2,2,,,13.714678,100.604522
ริทึ่ม รัชดา,11000000,,80,,,2,2,,,13.798751,100.575843
ศุภาลัย เอลีท แอท พญาไท,6206000,,44,,,1,1,,,13.756987,100.539217
,4790000,,33,,,1,1,,,13.751983,100.534693
,4990000,,68,,,2,2,,,13.683387,100.548229
โนเบิล บี ไนน์ทีน,13600000,,53,,,2,2,,,13.74228,100.559167
,3360000,12000,30,,,1,1,,,13.790921,100.574658
แอชตัน จุฬา-สีลม,6830000,,33,,,1,1,,,13.731096,100.531012
แอชตัน อโศก,8800000,,32,,,1,1,,,13.738898,100.5609
,6171000,30000,77,,,2,2,,,13.715739,100.547055
แอชตัน อโศก,8550000,,31,,,1,1,,,13.738898,100.5609
ฮาเว่น ลุกซ์ พหลโยธิน,4000000,,38,,,1,1,,,13.788078,100.553207
คีนน์ บาย แสนสิริ,10150000,,54,,,1,1,,,13.724993,100.576933
วายน์ สุขุมวิท,9550000,40000,69,,,2,2,,,13.712821,100.594265
,2400000,,28,,,1,1,,,13.712813,100.582698
,3700000,,33,,,1,1,,,13.701033,100.516013
,5050000,,35,,,1,1,,,13.695377,100.605772
ดิแอดเดรสสยาม,9580000,,72,,,2,2,,,13.752146,100.534294
333 ริเวอร์ไซด์,5300000,,47,,,1,1,,,13.806523,100.51946
สิริ แอท สุขุมวิท,18618400,63700,68,,,2,2,,,13.722573,100.580227
วิลล่า ราชเทวี,10540000,39000,55,,,1,1,,,13.754345,100.532544
รีเจ้นท์ ออคิด สุขุมวิท 101,2438000,,28,,,1,1,,,13.691353,100.610298
,4200000,,47,,,1,1,,,13.715089,100.588014
คอนโดเลต พิกเซล สาทร,4000000,15000,29,,,1,1,,,13.718225,100.549333
ศุภาลัย ริเวอร์ รีสอร์ท,3830000,,38,,,1,1,,,13.708888,100.495038
ไอดีโอ สุขุมวิท 93,4420000,,33,,,1,1,,,13.698563,100.604805
เอ็ม พญาไท,8690000,35000,44,,,1,1,,,13.760893,100.536221
เอ สเปซ อโศก-รัชดา,2600000,12000,35,,,1,1,,,13.75685,100.560255
,5300000,,35,,,1,1,,,,
มาเอสโตร 07 อนุสาวรีย์,4500000,,27,,,1,1,,,13.755287,100.530902
นารา ไนน์,7900000,,42,,,1,1,,,13.71782,100.532711
เดอะ ไลน์ อโศก-รัชดา,6710000,,34,,,1,1,,,13.755979,100.563553
ดิ เอ็มไพร์ เพลส สาทร,7660000,,54,,,1,1,,,13.719323,100.531126
333 ริเวอร์ไซด์,6700000,,46,,,1,1,,,13.806523,100.51946
เดอะ ลุมพินี 24,14000000,,55,,,2,2,,,13.722535,100.566242
,9760000,,33,,,1,1,,,13.719733,100.522404
,10520000,,68,,,2,2,,,13.695377,100.605772
โนเบิล รีโว สีลม,9300000,,66,,,2,2,,,13.719509,100.519492
,6230000,,31,,,,1,,,13.722468,100.58455
,3590000,,25,,,1,1,,,13.695377,100.605772
วอร์เตอร์มาร์ค เจ้าพระยา ริเวอร์,16500000,,142,,,3,3,,,13.710535,100.500849
,10630000,,91,,,2,2,,,13.720641,100.528207
แอชตัน จุฬา-สีลม,8060000,,35,,,1,1,,,13.731096,100.531012
,4374000,,26,,,1,1,,,13.75598,100.568231
เออร์บาโน่ แอบโซลูท สาทร-ตากสิน,4260000,20000,31,,,1,1,,,13.721125,100.507202
ไลฟ์ อโศก,8600000,,58,,,2,2,,,13.750283,100.564773
The Room เจริญกรุง 30,15960000,,77,,,2,2,,,13.728981,100.515637
ไอวี่ รัชดา,6240000,35000,66,,,2,2,,,13.791,100.575942
แอชตัน มอร์ฟ 38,16000000,,76,,,1,2,,,13.720934,100.579078
เซ็นทริค ซีน รัชวิภา,2850000,,40,,,1,1,,,13.830423,100.533174
คิว ชิดลม-เพชรบุรี,6800000,,35,,,1,1,,,13.749404,100.543869
ลุมพินี เพลส วอเตอร์คลิฟ,3300000,16000,45,,,2,2,,,13.700294,100.537998
มาเอสโตร 02 ร่วมฤดี,5850000,,37,,,1,1,,,13.73583,100.550698
โนเบิล รีวอลฟ์ รัชดา 2,3690000,,25,,,1,1,,,13.763628,100.569442
เดอะ ไลน์ อโศก-รัชดา,5420000,,34,,,1,1,,,13.755979,100.563553
,35000000,100000,193,,,3,4,,,13.729288,100.562496
,16900000,,78,,,2,2,,,13.722459,100.523549
โนเบิล บี ไนน์ทีน,15450000,,59,,,2,2,,,13.74228,100.559167
นิมิตร หลังสวน,30100000,,92,,,2,2,,,13.735221,100.54161
,3750000,,25,,,,1,,,13.795858,100.550205
คาซ่า คอนโด อโศก-ดินแดง ,2660000,,26,,,1,1,,,13.760815,100.555733
คาซ่า คอนโด รัชดา-ราชพฤกษ์ ,3610000,,35,,,1,1,,,13.713727,100.476237
,6800000,,29,,,1,1,,,13.75301,100.533877
ไนท์บริดจ์ ไพร์ม สาทร,5210000,,37,,,1,1,,,13.716801,100.533128
รีเจ้นท์ ออคิด สุขุมวิท 101,2438000,,28,,,1,1,,,13.691353,100.610298
ไอดีโอ โมบิ อโศก,6190000,,33,,,1,1,,,13.748426,100.565972
แอสปาย รัชดา–วงศ์สว่าง,2290000,,26,,,1,1,,,13.830736,100.525306
185 ราชดำริ,49000000,,127,,,2,2,,,13.735771,100.539092
โนเบิลเฮ้าส์ พญาไท,11235000,,68,,,2,2,,,13.757169,100.5354
คีนน์ บาย แสนสิริ,13100000,50000,53,,,1,1,,,13.724993,100.576933
ศุภาลัย ริเวอร์ รีสอร์ท,35000000,,253,,,3,5,,,13.708888,100.495038
,4760000,,35,,,1,1,,,13.807705,100.57118
ซีล บาย แสนสิริ,5300000,25000,43,,,1,1,,,13.730372,100.587924
เดอะ ไลน์ จตุจักร-หมอชิต,6240000,,35,,,1,1,,,13.806244,100.556048
ลุมพินี เพลส พระราม 4-กล้วยน้ำไท,2560000,11500,28,,,1,1,,,13.712813,100.582698
,5220000,,35,,,1,1,,,13.717856,100.516763
มาเอสโตร 07 อนุสาวรีย์,4360000,,27,,,1,1,,,13.755287,100.530902
สุรวงศ์ซิตี้รีสอร์ท,6200000,25000,55,,,2,1,1,3,13.728574,100.52408
The Room BTS วงเวียนใหญ่,14000000,,90,,,2,2,,,13.720407,100.495009
เดอะเพรสซิเดนท์ สุขุมวิท,3745000,16000,35,,,1,1,,,13.707177,100.585732
ดิ อาร์ท แอท ทองหล่อ,4750000,,40,,,1,1,,,13.740081,100.580923
เดอะ เวอร์ติคอล อารีย์,11710000,,75,,,2,2,,,13.778639,100.542311
,5500000,,62,,,1,1,,,13.738441,100.554059
เดอะ แบงค็อค สาทร,13250000,,64,,,1,1,,,13.71916,100.52069
มาเอสโตร 03 รัชดา - พระราม 9,4230000,,29,,,1,1,,,13.76283,100.564577
ยู ดีไลท์ เรสซิเดนซ์ ริเวอร์ฟรอนท์ พระราม 3,3800000,18000,34,,,1,1,,,13.675303,100.532792
แอสปาย สุขุมวิท 48,3400000,15000,38,,,1,1,,,13.71118,100.593972
แอชตัน อโศก,7930000,,33,,,1,1,,,13.738898,100.5609
,7100000,,82,,,2,2,,,13.7023,100.542247
มาเอสโตร 07 อนุสาวรีย์,4530000,,27,,,1,1,,,13.755287,100.530902
มาร์ค สุขุมวิท,49200000,,136,,,2,2,,,13.729903,100.570895
เดอะ เนสท์ สุขุมวิท 22,4130000,,28,,,1,1,,,13.724903,100.563369
มาร์ค สุขุมวิท,32240000,,124,,,2,2,,,13.729903,100.570895
ไอดีโอ วุฒากาศ,2300000,,21,,,,1,,,13.714664,100.467627
,5600000,32000,44,,,1,1,,,13.730928,100.58638
เดอะ ไลน์ จตุจักร-หมอชิต,14000000,50000,62,,,2,2,,,13.806244,100.556048
,7160000,,33,,,1,1,,,13.725512,100.566204
ไฮด์ สุขุมวิท,27310000,127000,127,,,3,3,,,13.740361,100.557288
เซ็นทริค รัชดา-สุทธิสาร,4900000,,40,,,1,1,,,13.789912,100.573599
ไลฟ์ อโศก-พระราม 9 ,3310000,,28,,,,1,,,13.754357,100.563878
,6360000,,35,,,1,1,,,13.729079,100.591623
แอชตัน อโศก,8100000,,34,,,1,1,,,13.738898,100.5609
ไอดีโอ คิว จุฬา-สามย่าน,12900000,,48,,,2,1,,,13.733349,100.527144
โนเบิล เพลินจิต,26280000,63000,77,,,1,1,,,13.743764,100.54861
แอชตัน อโศก,21640000,,64,,,2,2,,,13.738898,100.5609
ศุภาลัย เอลีท แอท พญาไท,11245000,,94,,,2,2,,,13.756987,100.539217
ลุมพินี เพลส พระราม 4-กล้วยน้ำไท,2600000,,28,,,1,1,,,13.712813,100.582698
เอลลิโอ เดล เรย์ สุขุมวิท 64,2145000,12000,24,,,,1,,,13.684212,100.604489
,6283000,,40,,,1,1,,,,
แอชตัน เรสซิเด้นซ์ 41,17976082,,73,,,2,2,,,13.732784,100.572857
บราวน์ คอนโด รัชดา 32,2990000,,37,,,2,1,1,2,,
เดอะ เทอร์ตี้ไนน์ ,16370000,35000,59,,,1,1,,,13.73221,100.570896
ไอดีโอ คิว สยาม - ราชเทวี,6570000,,34,,,1,1,,,13.75301,100.533877
,8250000,,47,,,2,1,,,13.751983,100.534693
ไฮฟ์สุขุมวิท 65,7100000,,66,,,2,2,,,13.720666,100.5882
คิวเฮ้าส์ คอนโด สาทร ,5300000,,47,,,1,1,,,13.72129,100.501253
,7010000,28000,51,,,2,1,,,13.754496,100.54253
ไลฟ์ อโศก,3960000,,29,,,1,1,,,13.750283,100.564773
เอช สุขุมวิท 43,10350000,42000,62,,,2,2,,,13.732767,100.574008
,12500000,60000,90,,,2,2,,,13.729288,100.562496
ริทึ่ม อโศก 2,5100000,,29,,,1,1,,,13.75391,100.564837
,4770000,,26,,,,1,,,13.748426,100.565972
คาซ่า คอนโด อโศก-ดินแดง ,3190000,14000,30,,,1,1,,,13.760815,100.555733
,4740000,,28,,,1,1,,,13.755979,100.563553
,7260000,,35,,,1,1,,,,
,4260000,,28,,,1,1,,,,
,12000000,58000,103,,,2,2,,,13.724999,100.582888
ไนท์บริดจ์ ไพร์ม สาทร,5490000,,37,,,1,1,,,13.716801,100.533128
,2580000,12000,34,,,1,1,,,13.787231,100.572136
คลาส สยาม,8140000,,50,,,1,1,,,13.747592,100.528244
ฮาเว่น ลุกซ์ พหลโยธิน,5740000,,50,,,1,1,,,13.788078,100.553207
ไซมิส เธอร์ตี้ไนน์,17490000,,124,,,3,3,,,13.73928,100.572688
,3990000,,32,,,1,1,,,13.790669,100.574196
,3500000,16000,21,,,1,1,,,13.704024,100.602008
,43638000,,,,,4,5,,,,
เดอะ เบส พาร์คเวสต์ - สุขุมวิท 77,4900000,,48,,,2,1,,,13.712959,100.600039
เอ สเปซ อโศก-รัชดา,5750000,,72,,,2,2,,,13.75685,100.560255
,3600000,16000,31,,,1,1,,,13.744899,100.583468
เดอะ ไลน์ ราชเทวี,7410000,,28,,,,1,,,13.752446,100.533475
,17080000,,122,,,2,2,,,13.706545,100.506495
อีควิน๊อกซ์ พหล-วิภา,8360000,,40,,,1,1,,,13.809454,100.55895
,5500000,,61,,,2,2,,,13.804437,100.576231
,8800000,35000,51,,,1,1,,,13.721157,100.537437
ซี เอกมัย,3450000,,30,,,1,1,,,13.740205,100.589785
ซาริ บาย แสนสิริ,3200000,,35,,4,1,1,1,2,13.687204,100.606716
ไอดีโอ สุขุมวิท 93,3520000,,26,,,,1,,,13.698563,100.604805
ศุภาลัย พรีเมียร์ แอท ราชเทวี,12770000,40000,95,,,2,2,,,13.75487,100.526029
ฟินน์ อารีย์,4850000,,31,,,1,1,,,13.777816,100.540275
อมันตา ลุมพินี,15910000,45000,100,,,2,3,,,13.723162,100.551403
แอชตัน จุฬา-สีลม,14090000,,58,,,2,2,,,13.731096,100.531012
เอ็ม ทองหล่อ 10,4920000,,29,,,1,1,,,13.730773,100.586811
,5860000,,40,,,1,1,,,13.754357,100.563878
คอนโด ยู ดีไลท์ แอท อ่อนนุช สเตชั่น,2530000,,30,,,1,1,,,13.711158,100.603783
คลาส หลังสวน,10930000,,45,,,1,1,,,13.741965,100.544311
ไอดีโอ คิว จุฬา-สามย่าน,7100000,,33,,,1,1,,,13.733349,100.527144
เดอะ ดิโพลแมท 39,15031000,,54,,,1,1,,,13.731507,100.570729
,5790000,,48,,,1,1,,,13.729919,100.5075
,31390000,,170,,,3,3,,,13.723244,100.568565
,20000000,,61,,,1,1,,,13.726193,100.569733
ไอดีโอ สุขุมวิท 93,3890000,,34,,,1,1,,,13.698563,100.604805
เดอะ ดิโพลแมท 39,25700000,,83,,,2,2,,,13.731507,100.570729
แอสปาย รัชดา–วงศ์สว่าง,2350000,,26,,,1,1,,,13.830736,100.525306
วิช ซิกเนเจอร์ มิดทาวน์ สยาม,7120000,,42,,,2,1,,,13.751983,100.534693
เดอะ ริเวอร์,13000000,,66,,,1,1,,,13.721558,100.510307
,6700000,,48,,,1,1,,,13.744076,100.587201
เอ็ม จตุจักร,3720000,,28,,,1,1,,,13.797477,100.55176
วิลล่า สาทร,4250000,,41,,,1,1,,,13.721234,100.504148
ริทึ่ม สุขุมวิท 36 – 38,8300000,37900,42,,,1,1,,,13.721609,100.576892
ไอดีโอ สุขุมวิท 93,4070000,,34,,,1,1,,,13.698563,100.604805
ฟิวส์ มิติ สุทธิสาร-รัชดา,3100000,12000,29,,,1,1,,,13.789345,100.563723
,5400000,,35,,,1,1,,,,
เดอะ พาร์คแลนด์ ตากสิน-ท่าพระ,3730000,,40,,,,1,,,13.716321,100.480608
เอดจ์ สุขุมวิท 23,7500000,27000,31,,,1,1,,,13.736521,100.563365
ลุมพินี พาร์ค พระราม 9-รัชดา,3200000,13500,31,,,1,1,,,13.753416,100.576341
,4260000,,30,,,1,1,,,13.695377,100.605772
แอชตัน เรสซิเด้นซ์ 41,18410000,,75,,,2,2,,,13.732784,100.572857
วิลล่า ราชเทวี,8500000,,45,,,1,1,,,13.754345,100.532544
,9900000,40000,60,,,2,2,,,13.707504,100.600429
,16170000,,60,,,2,2,,,13.731096,100.531012
วิลล่า สาทร,6000000,,57,,,1,1,,,13.721234,100.504148
ไลฟ์ แอท ท่าพระ,2550000,12000,43,,,1,1,,,13.718129,100.48015
เดอะ สกาย สุขุมวิท,3810000,,35,,,1,1,,,13.674922,100.611092
โนเบิล รีวอลฟ์ รัชดา,3763000,,26,,,1,1,,,13.763691,100.569463
ศุภาลัย ริวา แกรนด์,13610000,,145,,,3,3,,,13.677844,100.547267
,7604000,,35,,,1,1,,,,
The Room พระราม 4,8520000,,46,,,1,1,,,13.736319,100.52076
ไอวี่ ริเวอร์ ราษฎร์บูรณะ ,2300000,10000,30,,,1,1,,,13.688184,100.492293
เดอะ คริส เอ็กตร้า 5,3100000,,36,,,1,1,,,13.786693,100.572339
,5200000,,38,,,1,1,,,13.795069,100.550558
ฟิวส์ จันทน์-สาทร,6120000,25000,57,,,2,1,,,13.705683,100.530433
,5840000,,34,,,1,1,,,13.790398,100.545904
เมซองเดอวิลล์,2900000,,50,,,1,1,,,13.792032,100.547813
เดอะ เทอร์ตี้ไนน์ ,28500000,,106,,,2,2,,,13.73221,100.570896
,9500000,40000,96,,,2,2,,,13.746901,100.556471
ศุภาลัย เวลลิงตัน ,27000000,120000,250,,,4,5,4,6,13.765244,100.578967
,2160000,,27,,,,1,,,13.740556,100.60006
แอสปาย พระราม 4,2530000,,28,,,1,1,,,13.712091,100.584143
บลอคส์ 77,4470000,20000,40,,,1,1,,,13.710381,100.601693
แชปเตอร์วัน มิดทาวน์ ลาดพร้าว 24,3960000,,30,,,1,1,,,13.806471,100.572747
,6800000,,35,,,1,1,,,13.722468,100.58455
โนเบิล รีวอลฟ์ รัชดา,3660000,,26,,,1,1,,,13.763691,100.569463
,8710000,,47,,,1,1,,,13.739801,100.551763
ดิ แอดเดรส อโศก,5000000,25000,36,,,1,1,,,13.749514,100.561981
เอดจ์ สุขุมวิท 23,7000000,27000,33,,,1,1,,,13.736521,100.563365
,11290000,,68,,,2,2,,,13.75598,100.568231
The Room สุขุมวิท 64,3400000,17000,41,,,1,1,,,13.68622,100.604799
,4079000,,26,,,1,1,,,13.790398,100.545904
ริทึ่ม อโศก 2,4630000,,29,,,1,1,,,13.75391,100.564837
เอสแอนด์เอส สุขุมวิท,2660000,,36,,,1,1,,,13.683741,100.614941
เดอะ ไลน์ อโศก-รัชดา,9691000,,46,,,2,1,,,13.755979,100.563553
แอชตัน จุฬา-สีลม,6920000,,33,,,1,1,,,13.731096,100.531012
,4070000,,29,,,1,1,,,13.722909,100.576852
เดอะ คีย์ สาทร-เจริญราษฎร์,3511000,,35,,,1,1,,,13.701033,100.516013
,8930000,,47,,,2,1,,,13.751983,100.534693
เซอร์เคิล ลิฟวิ่ง โปรโตไทพ์,10110000,,77,,,2,2,,,13.75008,100.556067
,4500000,,62,,,2,2,,,13.803648,100.577779
เดอะ เมท,14500000,47500,92,,,2,2,,,13.72203,100.534139
ไซมิส เอ็กซ์คลูซีฟ สุขุมวิท 31,12390000,,70,,,1,1,,,13.738236,100.566142
ไอดีโอ สุขุมวิท 93,4620000,,34,,,1,1,,,13.698563,100.604805
ไอดีโอ สุขุมวิท 93,4350000,,34,,,1,1,,,13.698563,100.604805
ฮาเว่น ลุกซ์ พหลโยธิน,3450000,,37,,,1,1,,,13.788078,100.553207
ริทึ่ม สุขุมวิท,6760000,35000,45,,,1,1,,,13.706522,100.59934
,5880000,25000,40,,,1,1,,,13.723602,100.526755
ดิ แอดเดรส อโศก,7050000,30000,47,,,1,1,,,13.749514,100.561981
,29170000,,84,,,2,2,,,13.743764,100.54861
,3960000,,41,,,1,1,,,13.804437,100.576231
แอชตัน จุฬา-สีลม,7030000,,33,,,1,1,,,13.731096,100.531012
วิสต้าการ์เด้นคอนโดมิเนียม,3200000,,49,,,1,1,,,13.713986,100.599431
แอสปาย พระราม9,4970000,14000,39,,,1,1,,,13.754805,100.566923
,3650000,16000,30,,,1,1,,,13.730372,100.587924
เออร์บาโน่ แอบโซลูท สาทร-ตากสิน,4260000,,30,,,1,1,,,13.721125,100.507202
แฟร์ทาวน์เวอร์ สุขุมวิท 50,4240000,,78,,,1,1,,,13.70543,100.596983
,8940000,,33,,,1,1,,,13.719733,100.522404
แอสปาย สาทร-ท่าพระ,2380000,,24,,,1,1,,,13.715635,100.479962
แอสปาย สุขุมวิท 48,3200000,,32,,,1,1,,,13.71118,100.593972
เอ็ม จตุจักร,4590000,,32,,,1,1,,,13.797477,100.55176
เดอะ ริทซ์–คาร์ลตัน เรสซิเดนเซส บางกอก,77600000,,,,,3,3,,,13.72389,100.527884
วิสซ์ดอม คอนเนค สุขุมวิท,5390000,,39,,,1,1,,,13.685642,100.610619
,7370000,,45,,,1,1,,,13.721571,100.497397
ไอดีโอ สาทร-ท่าพระ,2800000,12000,22,,,,1,,,13.717258,100.482319
The Room พระราม 4,7800000,,45,,,1,1,,,13.736319,100.52076
,7130000,,35,,,1,1,,,13.722468,100.58455
ริทึ่ม รัชดา,4300000,,35,,,1,1,,,13.798751,100.575843
,13100000,45000,135,,,2,1,,,13.721248,100.517142
แอชตัน อโศก,8340000,,34,,,1,1,,,13.738898,100.5609
เดอะทรัสต์ เรสซิเด้นซ์ รัชดา-พระราม 3,2660000,12000,29,,,1,1,,,13.694152,100.536283
ไอดีโอ คิว จุฬา-สามย่าน,3200000,,21,,,1,1,,,13.733349,100.527144
ไอดีโอ สุขุมวิท 93,3635000,,25,,,,1,,,13.698563,100.604805
แอสปาย สาทร-ตากสิน ทิมเบอร์ โซน,2950000,14500,31,,,1,1,,,13.715635,100.479962
ไลฟ์ อโศก,4635000,,29,,,1,1,,,13.750283,100.564773
,22400000,85000,135,,,2,2,,,13.723244,100.568565
เดอะ คีย์ สาทร-เจริญราษฎร์,3511000,,35,,,1,1,,,13.701033,100.516013
ริทึ่ม อโศก 2,4980000,,27,,,1,1,,,13.75391,100.564837
เดอะลิงค์ สุขุมวิท 64 (Back up),2100000,,31,,3,1,1,1,2,13.686456,100.605479
,2900000,,25,,,,1,,,13.788697,100.553204
ไอดีโอ โมบิ อโศก,4810000,,26,,,1,1,,,13.748426,100.565972
,3950000,,35,,,1,1,,,13.707177,100.585732
เดอะเน็กซ์ การ์เด้นสูท,3700000,,46,,,1,1,,,13.703637,100.599567
,5480000,,60,,,2,2,,,13.705683,100.530433
เดอะ ลุมพินี 24,7980000,27000,27,,,1,1,,,13.722535,100.566242
ดิ เอดิเตอร์ สะพายควาย,4890000,16500,28,,,1,1,,,13.794136,100.549538
วิช ซิกเนเจอร์ มิดทาวน์ สยาม,6380000,,34,,,1,1,,,13.751983,100.534693
นิช โมโน รัชวิภา,2770000,,35,,,1,1,,,13.830892,100.540084
วอร์เตอร์มาร์ค เจ้าพระยา ริเวอร์,18700000,75000,145,,,1,1,,,13.710535,100.500849
เอสวี ซิตี้ พระราม 3 ,5500000,,75,,,2,2,,,13.673366,100.543027
ไนท์บริดจ์ ไพร์ม สาทร,5560000,,37,,,1,1,,,13.716801,100.533128
,7370000,,45,,,1,1,,,13.721571,100.497397
คิว ชิดลม-เพชรบุรี,21017000,,110,,,2,2,,,13.749404,100.543869
,4050000,,39,,,1,1,,,13.703378,100.540306
,6800000,20000,47,,,1,1,,,13.760067,100.569381
เอ็ม จตุจักร,4580000,19000,30,,,1,1,,,13.797477,100.55176
ไอดีโอ คิว พญาไท,8520000,,41,,,1,1,,,13.755583,100.532839
ริทึ่ม สาทร,4700000,24000,35,,,1,1,,,13.717856,100.516763
ไลฟ์ อโศก,4120000,,24,,,1,1,,,13.750283,100.564773
แอชตัน สีลม,13730000,,49,,,1,1,,,13.726391,100.526828
ดิ แอดเดรส สุขุมวิท 42,4300000,,46,,,1,1,,,13.716839,100.585358
ไอวี แอมพิโอ,16500000,,81,,,2,2,,,13.762857,100.568267
,,25000,43,,,1,1,,,13.760067,100.569381
ชีวาทัย เรสซิเดนซ์ อโศก,5410000,,36,,,1,1,,,13.753899,100.564346
เดอะ ไลน์ ราชเทวี,17050000,,60,,,2,2,,,13.752446,100.533475
เดอะ เครสท์ สุขุมวิท 24,9580000,40000,47,,,1,1,,,13.729229,100.566074
โนเบิล โซโล,7210000,30000,52,,,1,1,,,13.740159,100.585009
ไลฟ์ รัชดาภิเษก,5110000,25000,46,,,1,1,,,13.790669,100.574196
,7500000,,120,,,3,3,,,13.724737,100.581675
เดอะ เมท,18500000,45000,94,,,2,2,,,13.72203,100.534139
ไอดีโอ สาทร-ท่าพระ,2870000,12000,22,,,,1,,,13.717258,100.482319
นารา ไนน์,7900000,,42,,,1,1,,,13.71782,100.532711
,6000000,,46,,,1,1,,,13.746901,100.556471
,12000000,,77,,,2,2,,,13.687433,100.517984
เอ็ม สีลม,11710000,40000,52,,,1,1,,,13.727446,100.527242
โนเบิล รีวอลฟ์ รัชดา,4500000,,25,,,,1,,,13.763691,100.569463
เดอะ สกาย สุขุมวิท,3600000,15000,24,,,1,1,,,13.674922,100.611092
ไอดีโอ โมบิ บางซื่อ แกรนด์ อินเตอร์เช้นจ์,4450000,,32,,,1,1,,,13.805893,100.533039
,5184000,22000,59,,,2,1,,,13.804437,100.576231
ไลฟ์ อโศก-พระราม 9 ,4030000,,28,,,,1,,,13.754357,100.563878
แอชตัน อโศก,7950000,,32,,,1,1,,,13.738898,100.5609
,11640000,,68,,,2,2,,,13.75598,100.568231
,17000000,,133,,,3,4,,,13.737837,100.566372
ไนท์บริดจ์ ไพร์ม สาทร,7270000,,58,,,1,1,,,13.716801,100.533128
เดอะ ดิโพลแมท 39,16750000,,57,,,1,1,,,13.731507,100.570729
เอ็ม พญาไท,8800000,,46,,,1,1,,,13.760893,100.536221
,6420000,,38,,,1,1,,,13.795069,100.550558
เดอะ ริเวอร์,23400000,80000,130,,,3,3,,,13.721558,100.510307
ควินน์ คอนโด รัชดา17,5860000,,45,,,1,1,,,13.786325,100.573246
,11710000,,68,,,2,2,,,13.75598,100.568231
วอร์เตอร์มาร์ค เจ้าพระยา ริเวอร์,26000000,,242,,,4,5,,,13.710535,100.500849
ไอดีโอ คิว จุฬา-สามย่าน,5620000,,34,,,1,1,,,13.733349,100.527144
โนเบิล รีโคล สุขุมวิท 19,6600000,,35,,,1,1,,,13.742184,100.559938
แดน ลิฟวิ่ง สาทร-เจริญราษฎร์,4990000,,62,,,2,2,,,13.700535,100.515903
นายน์ บาย แสนสิริ,9800000,,66,,,2,2,,,13.721807,100.497809
ดิ เอ็มไพร์ เพลส สาทร,36000000,,267,,,1,4,,,13.719323,100.531126
ศุภาลัย ริเวอร์ รีสอร์ท,,20000,38,,,1,1,,,13.708888,100.495038
,5500000,19000,46,,,1,1,,,13.798751,100.575843
,4620000,,53,,,2,2,,,13.75685,100.560255
คาซ่า คอนโด อโศก-ดินแดง ,3190000,14000,30,,,1,1,,,13.760815,100.555733
ไอดีโอ สุขุมวิท 93,3300000,,25,,,1,1,,,13.698563,100.604805
พลัมคอนโด เอ็กซ์ตร้า พระราม 2,1290000,6500,23,,,1,1,1,1,13.67178,100.459769
ไลฟ์ แอท สาทร 10,5160000,22000,41,,,1,1,,,13.7226,100.527373
ไฮฟ์ ตากสิน,5107000,,50,,,1,1,,,13.721894,100.496529
ไอวี แอมพิโอ,7450000,,44,,,1,1,,,13.762857,100.568267
ไนท์บริดจ์ ไพร์ม สาทร,6818000,,44,,,1,1,,,13.716801,100.533128
ไพน์ บาย แสนสิริ,21900000,,80,,,2,2,,,13.751878,100.531214
ไลฟ์ อโศก,4530000,,29,,,1,1,,,13.750283,100.564773
,17020000,,119,,,2,2,,,13.751836,100.531988
,4511000,,27,,,,1,,,13.721571,100.497397
ไอดีโอ โมบิ สุขุมวิท,7380000,,52,,,2,2,,,13.704024,100.602008
เดอะ สกาย สุขุมวิท,6700000,35000,45,,,1,1,,,13.674922,100.611092
แอชตัน จุฬา-สีลม,7040000,,33,,,1,1,,,13.731096,100.531012
แอชตัน อโศก,8120000,,34,,,1,1,,,13.738898,100.5609
ริทึ่ม อโศก 2,4970000,,30,,,1,1,,,13.75391,100.564837
แอชตัน จุฬา-สีลม,7340000,,35,,,1,1,,,13.731096,100.531012
เดอะ ไพรเวซี่ ประชาอุทิศ – สุขสวัสดิ์,1800000,,24,,,1,1,1,1,13.661925,100.502512
ไอดีโอ ลาดพร้าว 5,4200000,,33,,,1,1,,,13.810582,100.565777
ดิ เอส อโศก,10790000,,45,,,1,1,,,13.743168,100.561734
ไอดีโอ คิว จุฬา-สามย่าน,6220000,,34,,,1,1,,,13.733349,100.527144
ลุมพินี พาร์ค พระราม 9-รัชดา,2580000,,27,,,1,1,,,13.753416,100.576341
วิสซ์ดอม คอนเนค สุขุมวิท,5390000,,39,,,1,1,,,13.685642,100.610619
,2320000,,23,,,,1,,,13.772054,100.579979
The Room สุขุมวิท 64,3620000,12000,40,,,1,1,,,13.68622,100.604799
,5200000,,34,,,1,1,,,13.795858,100.550205
,5550000,,34,,,1,1,,,13.795858,100.550205
วิลล่า สาทร,4300000,,41,,,1,1,,,13.721234,100.504148
วิสซ์ดอม สเตชั่น รัชดา-ท่าพระ,5860000,,50,,,2,1,,,13.713712,100.478352
ไลฟ์ สุขุมวิท 48,4590000,,40,,,1,1,,,13.711512,100.594775
,35060000,85000,85,,,2,2,,,13.72974,100.581259
,8660000,,47,,,1,1,,,13.739801,100.551763
,14900000,,88,,,2,2,,,13.747592,100.528244
ลุมพินี พาร์ค ริเวอร์ไซด์ พระราม 3	,2870000,12000,30,,,1,1,,,13.679026,100.527594
แอสปาย สาทร-ท่าพระ,3960000,,31,,,1,1,,,13.715635,100.479962
,4480000,,28,,,1,1,,,13.755979,100.563553
แอสปาย สาทร-ท่าพระ,2860000,10000,27,,,1,1,,,13.715635,100.479962
เดอะ สกาย สุขุมวิท,4340000,,35,,,1,1,,,13.674922,100.611092
,3900000,,35,,,1,1,,,13.730372,100.587924
แชปเตอร์วัน อีโค รัชดา - ห้วยขวาง,3200000,,29,,,1,1,,,13.772054,100.579979
,6230000,23000,49,,,1,1,,,13.749087,100.527547
แอชตัน จุฬา-สีลม,7730000,,33,,,1,1,,,13.731096,100.531012
เมโทรลักซ์ เอกมัย - พระราม 4,5830000,30000,47,,,2,2,,,13.711812,100.580317
นารา ไนน์,7553000,,39,,,1,1,,,13.71782,100.532711
,460000,,30,,,1,1,1,1,,
แอชตัน จุฬา-สีลม,9810000,,35,,,1,1,,,13.731096,100.531012
แอชตัน สีลม,8980000,,35,,,1,1,,,13.726391,100.526828
,1799000,,27,2707,27,1,1,1,1,,
ไลฟ์ อโศก-พระราม 9 ,3920000,,25,,,,1,,,13.754357,100.563878
เอ็ม จตุจักร,4550000,,32,,,1,1,,,13.797477,100.55176
ไอดีโอ คิว จุฬา-สามย่าน,5220000,16000,22,,,,1,,,13.733349,100.527144
,16480000,,72,,,2,2,,,13.719733,100.522404
,7010000,,34,,,1,1,,,13.795858,100.550205
,3280000,,28,,,1,1,,,13.713712,100.478352
,5960000,24000,30,,,1,1,,,13.75301,100.533877
แอสปาย สาทร-ท่าพระ,3400000,,31,,,1,1,,,13.715965,100.479842
,31020000,,265,,,2,2,,,13.746928,100.556054
,7500000,,43,,,1,1,1,2,,
ริทึ่ม รางน้ำ,11330000,,56,,,2,2,,,13.761155,100.536971
เดอะรีเซิร์ฟ เกษมสันต์ 3,5320000,23000,28,,,1,1,,,13.749074,100.527364
เลอ โคเต้ ทองหล่อ 8,4550000,17000,30,,,1,1,,,13.731013,100.582694
สตาร์วิว พระราม 3,8300000,,78,,,2,2,1,3,13.687418,100.517916
แมกโนเลียส์ วอเตอร์ฟรอนท์ เรสซิเดนซ์ ณ ไอคอนสยาม,47800000,,128,,,2,2,,,13.727956,100.511167
โนเบิล รีวอลฟ์ รัชดา,3470000,13500,23,,,,1,,,13.763691,100.569463
โมนีค สุขุมวิท 64,3820000,,49,,,1,1,,,13.688779,100.602379
,5150000,30000,42,,,1,1,,,13.717117,100.589111
ไลฟ์ รัชดาภิเษก,5500000,20000,47,,,2,1,,,13.790669,100.574196
แอชตัน สีลม,20950000,,76,,,2,2,,,13.726391,100.526828
เลอ โมนาโค เรสซิเด้นท์,27000000,,173,,,3,3,,,13.787488,100.544007
ไอดีโอ โมบิ บางซื่อ แกรนด์ อินเตอร์เช้นจ์,3550000,,26,,,1,1,,,13.805893,100.533039
,6070000,,31,,,1,1,,,13.806244,100.556048
เดอะ เพรสซิเด้นท์ สาทร-ราชพฤกษ์ 1,2560000,,35,,,1,1,,,13.72043,100.458841
ฮิว สุขุมวิท,3410000,,32,,,1,1,,,13.689117,100.60886
เดอะ สตาร์ เอสเตท พระราม 3,3830000,,55,,,1,1,,,13.674774,100.534755
นิมิตร หลังสวน,49680000,,138,,,3,3,,,13.735221,100.54161
คิว ชิดลม-เพชรบุรี,6600000,25000,35,,,1,1,,,13.749404,100.543869
แอสปาย สาทร-ตากสิน ทิมเบอร์ โซน,2500000,12000,27,,,1,1,,,13.713428,100.463978
เอ็ม ทองหล่อ 10,4920000,,29,,,1,1,,,13.730773,100.586811
,10800000,40000,84,,,2,2,,,13.718619,100.527063
,3200000,,28,,,1,1,,,13.75391,100.564837
,6370000,,39,,,1,1,,,13.831586,100.570987
เดอะ ไลน์ อโศก-รัชดา,4996100,,35,,,1,1,,,13.755979,100.563553
เซ็นทริค ห้วยขวาง สเตชั่น,4890000,,32,,,1,1,,,13.780297,100.573986
,5320000,27000,54,,,1,1,,,13.734471,100.578673
เดอะ รูม สุขุมวิท 69 ,6700000,,34,,,1,1,,,13.714446,100.592856
ไอดีโอ สาทร-ท่าพระ,2766000,12000,22,,,,1,,,13.717258,100.482319
แอชตัน จุฬา-สีลม,6600000,,32,,,1,1,,,13.731096,100.531012
,2650000,,45,,,2,2,,,13.712272,100.607013
เอดจ์ สุขุมวิท 23,6800000,,32,,,1,1,,,13.736521,100.563365
ไลฟ์ อโศก,3380000,,24,,,1,1,,,13.750283,100.564773
ยู ดีไลท์ @ จตุจักร สเตชั่น,3600000,,33,,,1,1,,,13.798425,100.556417
ดิ เอ็มไพร์ เพลส สาทร,8300000,30000,65,,,1,1,,,13.719323,100.531126
ไซมิส จอยญ่า,13500000,,139,,,2,2,,,13.742912,100.570998
,9280000,,55,,,2,2,,,13.75598,100.568231
ริทึ่ม พหล-อารีย์,5390000,20000,36,,,1,1,,,13.788905,100.545271
โนเบิล รีมิกซ์,8620000,29000,45,,,1,1,,,13.724502,100.577252
เดอะ ซีรี่ส์ อุดมสุข 29,2649000,10000,35,,,1,1,,,13.679838,100.624173
เบเวอรี่ 33,5060000,29000,39,,,1,1,,,13.723392,100.58304
ไอดีโอ คิว ราชเทวี,6500000,25000,34,,,1,1,,,13.75282,100.533865
โมริ เฮาส์,5970000,,46,,,1,1,,,13.715009,100.602331
เดอะ ไลน์ พหลโยธิน-ประดิพัทธ์,5150000,,34,,,1,1,,,13.790398,100.545904
,5180000,,36,,,1,1,,,13.75598,100.568231
,4900000,,45,,,1,1,,,,
โนเบิล โซโล,10150000,45000,86,,,1,1,,,13.740159,100.585009
เดอะ มาสเตอร์ สาทร เอ็กเซ็คคลูทีฟ,2990000,,35,,,1,1,,,13.721398,100.500452
ยุคลรัตน์ คอนโดมิเนียม ,650000,,27,124,5,1,1,1,1,13.717435,100.790697
เดอะ สกาย สุขุมวิท,4840000,,45,,,2,1,,,13.674922,100.611092
ศุภาลัย พรีเมียร์ @ อโศก,8500000,38000,80,,,2,2,,,13.744737,100.562745
อิลีเม้นท์ ศรีนครินทร์,6700000,,67,,,2,2,1,3,13.696778,100.644537
แอสปาย พระราม9,5110000,,38,,,1,1,,,13.754805,100.566923
คิว คอนโด อโศก ,7840000,,38,,,1,1,,,13.748244,100.562727
,5990000,,45,,,1,1,,,13.722909,100.576852
,3000000,,32,,,1,1,,,13.797932,100.555789
,3480000,,25,,,,1,,,13.75598,100.568231
,5980000,,35,,,1,1,,,13.755979,100.563553
แอชตัน จุฬา-สีลม,7520000,,35,,,1,1,,,13.731096,100.531012
คิวเฮ้าส์ คอนโด สาทร ,7450000,,57,,,2,2,,,13.72129,100.501253
The Room BTS วงเวียนใหญ่,7100000,,44,,,1,1,,,13.720407,100.495009
วิสซ์ดอม อเวนิว รัชดา-ลาดพร้าว,5230000,,35,,,1,1,,,13.80522,100.574214
,5450000,,38,,,1,1,,,13.695377,100.605772
โนเบิล รีวอลฟ์ รัชดา 2,3480000,,25,,,1,1,,,13.763628,100.569442
แอสปาย สาทร-ท่าพระ,2840000,,31,,,1,1,,,13.715635,100.479962
แอสปาย สุขุมวิท 48,3740000,,38,,,1,1,,,13.71118,100.593972
โนเบิล รีวีล,12500000,55000,76,,,2,2,,,13.721926,100.584844
,5860000,,61,,,2,1,,,13.804437,100.576231
,2950000,,33,,,1,1,,,13.694152,100.536283
มาเอสโตร 12 ราชเทวี,4233300,,31,,,1,1,,,13.753911,100.529584
เดอะ เทอร์ตี้ไนน์ ,15600000,,55,,,1,1,,,13.73221,100.570896
แอชตัน อโศก,8700000,,35,,,1,1,,,13.738898,100.5609
เดอะ โมนูเมนต์ สนามเป้า,19000000,,88,,,2,2,1,3,13.769223,100.540522
โนเบิล รีมิกซ์,11800000,50000,62,,,1,1,,,13.724502,100.577252
คอนโดเลต ดเวล สุขุมวิท 26,4580000,23000,32,,,1,1,,,13.725771,100.570379
ไอดีโอ สาทร-ท่าพระ,3370000,,30,,,1,1,,,13.717258,100.482319
เดอะ ล็อค 3 สุขุมวิท 101/1,1720000,,40,,,1,1,1,2,13.686221,100.635308
,8450000,42000,52,,,1,1,,,13.743606,100.561252
เดอะ เพรสซิเด้นท์ สาทร-ราชพฤกษ์ 1,2350000,,30,,,1,1,1,1,13.72096,100.458784
พลัมคอนโด นวมินทร์,1250000,,29,,,1,1,,1,13.825299,100.681622
,12500000,32500,76,,,2,2,,,13.730482,100.575624
The Room BTS วงเวียนใหญ่,6710000,,46,,,1,1,,,13.720407,100.495009
อมันตา ลุมพินี,18000000,55000,93,,,2,2,,,13.723162,100.551403
ไอดีโอ คิว ราชเทวี,9280000,,48,,,1,1,,,13.75282,100.533865
,10900000,,156,,,2,2,,,13.74306,100.57351
ดี 25 ทองหล่อ,6180000,28000,51,,,,1,,,13.739114,100.582741
ไฮฟ์ ตากสิน,9580000,,73,,,2,2,,,13.721894,100.496529
ศุภาลัย พรีเมียร์ เจริญนคร,3477319,,35,,,1,1,,,13.729919,100.5075
เซ็นทริคซีน สุขุมวิท 64,3730000,,39,,,1,1,,,13.683711,100.61034
เดอะ ซี้ด เตร์เร รัชโยธิน,4200000,16000,40,,,1,1,,,13.830305,100.569721
เอ สเปซ ไอดี อโศก-รัชดา,5600000,18000,33,,,1,1,,,13.756804,100.560239
,5900000,,82,,,2,2,,,13.769198,100.578202
แอชตัน จุฬา-สีลม,7210000,,35,,,1,1,,,13.731096,100.531012
เซ็นทริคซีน สุขุมวิท 64,6710000,,76,,,2,2,,,13.683711,100.61034
เดอะ เทรนดี้ คอนโดมิเนียม,4260000,22000,36,,,,1,,,13.740529,100.5579
,6110000,,36,,,1,1,,,13.75598,100.568231
เดอะ ไลน์ จตุจักร-หมอชิต,10712000,,59,,,2,2,,,13.806244,100.556048
ริทึ่ม อโศก 2,4970000,,30,,,1,1,,,13.75391,100.564837
สาทร พลัส ออน เดอะ พอนด์,3730000,15000,52,,,1,1,,,13.715639,100.546967
นิช โมโน รัชวิภา,2989000,,35,,,1,1,,,13.830892,100.540084
เมโทร ปาร์ค สาทร,2120000,,43,,,1,1,,,13.709118,100.451345
ดิ แอดเดรส สุขุมวิท 28,16980000,65000,67,,,2,2,,,13.728051,100.572452
,4110000,,35,,,1,1,,,13.75598,100.568231
เดอะ เซนต์ เรสิเดนเซส ,4130000,,30,,,1,1,,,,
,8200000,,41,,,2,1,,,13.751983,100.534693
,10980000,,120,,,2,2,,,13.744721,100.558561
ริทึ่ม อโศก,5670000,20000,28,,,1,1,,,13.754267,100.564468
ริทึ่ม พหล-อารีย์,6162000,,45,,,1,1,,,13.788905,100.545271
ริทึ่ม พหล-อารีย์,9900000,,65,,,2,2,,,13.788905,100.545271
The Room สาทร-ตากสิน,5220000,,47,,,1,1,,,13.717746,100.483477
เอ็ม จตุจักร,8780000,,55,,,2,2,,,13.797477,100.55176
ไอดีโอ คิว จุฬา-สามย่าน,6000000,,24,,,1,1,,,13.733349,100.527144
โนเบิล รีไฟน์,7030000,29000,33,,,,1,,,13.728365,100.568836
เดอะ สเตจ เตาปูน-อินเตอร์เชนจ์,5250000,,56,,,2,1,,,13.806258,100.526553
ซิทริน สาทร-ตากสิน,3560000,15000,42,,,1,1,,,13.721458,100.492741
ไอดีโอ บลูโคฟ สาทร,6330000,,63,,,2,2,,,13.721972,100.495807
ไอดีโอ คิว สยาม - ราชเทวี,6600000,,30,,,1,1,,,13.75301,100.533877
แอชตัน จุฬา-สีลม,7334100,,26,,,1,1,,,13.731096,100.531012
,3800000,17000,35,,,1,1,,,13.778353,100.57407
,7780000,,49,,,1,1,,,13.723249,100.52205
เดอะ สกาย สุขุมวิท,4750000,,31,,,1,1,,,13.674922,100.611092
,7725000,32000,49,,,2,1,,,13.685741,100.610621
เดอะ ไลท์เฮ้าส์ สาทร-เจริญนคร,4560000,,47,,,1,1,,,13.7224,100.508352
,8245500,,47,,,1,1,,1,,
เดอะ ไลน์ ราชเทวี,9300000,,33,,,1,1,,,13.752446,100.533475
ซี เอกมัย,3950000,,30,,,1,1,,,13.740205,100.589785
,10500000,45000,80,,,1,1,,,13.71932,100.584445
,3300000,,44,,,1,1,,,13.711298,100.479447
ควอด สีลม,8730000,30000,46,,,1,1,,,13.724,100.530389
,4500000,22000,52,,,2,2,,,13.75685,100.560255
,28730000,,461,,,4,5,,,13.735154,100.553447
เมย์แฟร์ เพลส สุขุมวิท 50,3750000,,35,,,1,1,,,13.704712,100.594891
ฟิวส์ สาทร - ตากสิน,5319148,,32,,,1,1,,,13.720432,100.496983
ณ วรา เรสซิเดนซ์,11450000,,43,,,1,1,,,13.741869,100.544394
,18000000,,128,,,2,2,,,13.706545,100.506495
ฟิวส์ จันทน์-สาทร,4000000,18500,32,,,1,1,,,13.705683,100.530433
ไอดีโอมิกซ์ สุขุมวิท 103 ,3730000,,36,,,1,1,,,13.680549,100.610491
เดอะ เพรสซิเด้นท์ สาทร-ราชพฤกษ์ 1,2154700,,30,,,1,1,,,13.72043,100.458841
เออร์บาโน่ แอบโซลูท สาทร-ตากสิน,4470000,,37,,,1,1,,,13.721125,100.507202
,10110000,35000,53,,,1,1,,,13.743606,100.561252
,5100000,,69,,,2,2,,,13.803648,100.577779
แอสปาย สุขุมวิท 48,3730000,,38,,,1,1,,,13.71118,100.593972
ฟิวส์ สาทร - ตากสิน,7980000,,69,,,2,2,,,13.720432,100.496983
,2660000,,32,,,1,1,,,13.772236,100.579882
ไนท์บริดจ์ ไพร์ม สาทร,7200000,,44,,,1,1,,,13.716801,100.533128
วิสซ์ดอม สเตชั่น รัชดา-ท่าพระ,3440000,,33,,,1,1,,,13.713712,100.478352
,4620000,,53,,,2,2,,,13.75685,100.560255
,4050000,,35,,,1,1,,,13.75598,100.568231
ไฮด์ สุขุมวิท,8990000,36000,46,,,1,1,,,13.740361,100.557288
,5500000,,34,,,1,1,,,13.790398,100.545904
,8690000,,36,,,1,1,,,13.761155,100.536971
วิสซ์ดอม สเตชั่น รัชดา-ท่าพระ,3530000,,30,,,1,1,,,13.713712,100.478352
,5750000,,34,,,1,1,,,13.790049,100.547449
,2320000,,23,,,,1,,,13.772054,100.579979
,4870000,,30,,,1,1,,,,
เอ็ม จตุจักร,4640000,,32,,,1,1,,,13.797477,100.55176
เดอะ พาร์คแลนด์ ตากสิน-ท่าพระ,2950000,,36,,,1,1,,,13.716554,100.480646
แอสปาย สาทร-ท่าพระ,2940000,,31,,,1,1,,,13.715635,100.479962
บลอคส์ 77,4780000,,40,,,1,1,,,13.710381,100.601693
วิลล่า สาทร,12305000,,106,,,2,2,,,13.721234,100.504148
ดิ เอ็มไพร์ เพลส สาทร,13830000,,114,,,2,2,,,13.719323,100.531126
,9460000,,55,,,2,2,,,13.75598,100.568231
ศุภาลัย พรีเมียร์ @ อโศก,8500000,,80,,,2,2,,,13.744737,100.562745
ดิ แอดเดรส สุขุมวิท 61,11880000,55000,62,,,1,1,,,13.723508,100.583343
คาซ่า คอนโด อโศก-ดินแดง ,3200000,13000,30,,,1,1,,,13.760815,100.555733
ซี เอกมัย,3600000,,30,,,1,1,,,13.740205,100.589785
โนเบิล รีวอลฟ์ รัชดา 2,3610000,,25,,,1,1,,,13.763628,100.569442
,2575000,,33,,,,1,,,13.711298,100.479447
ศุภาลัย ปาร์ค เอกมัย-ทองหล่อ,4390000,,55,,,1,1,,,13.742941,100.58898
ริทึ่ม รางน้ำ,6700000,,35,,,1,1,,,13.761155,100.536971
เดอะ เครสท์ สุขุมวิท 34,7850000,35000,36,,,1,1,,,13.725295,100.576498
คาซ่า คอนโด อโศก-ดินแดง ,2980000,13000,30,,,1,1,,,13.760815,100.555733
,3110000,,29,,,1,1,,,13.684963,100.604501
เดอะ พาร์คแลนด์ แกรนด์ อโศก-เพชรบุรี,4470000,,38,,,1,1,,,13.748641,100.567847
สุขุมวิทสวีท,4050000,,55,,,1,1,,,13.742824,100.55762
ไอดีโอเวิร์ฟ,10000000,39000,72,,,2,2,,,13.754496,100.54253
,9300000,,40,,,1,1,,,13.755577,100.564376
,6140000,,34,,,1,1,,,13.755979,100.563553
,4700000,16000,30,,,1,1,,,13.755821,100.566363
ลุมพินี พาร์ค ริเวอร์ไซด์ พระราม 3	,3000000,,32,,,1,1,,,13.679026,100.527594
โนเบิล รีไฟน์,12850000,,71,,12,2,2,,3,13.728584,100.570697
เดอะ เทมโป แกรนด์ สาทร-วุฒากาศ,2940000,,30,,,1,1,,,13.712604,100.467943
โนเบิล รีวอลฟ์ รัชดา,8250000,,52,,,2,2,,,13.763691,100.569463
ไลฟ์ แอท รัชดา-ห้วยขวาง,3150000,14000,30,,,1,1,,,13.778809,100.574207
,4790000,,28,,,1,1,,,13.755979,100.563553
ดิ เอ็มไพร์ เพลส สาทร,7600000,40000,54,,,1,1,,,13.719323,100.531126
