CondoName,SalePrice,RentPrice,RoomArea,UnitNbr,FloorNbr,nbrBed,nbrBath,nbrPark,nbrAirCon,Latitude,Longitude
ไนท์บริดจ์ ไพร์ม สาทร,6600000,,44,,,1,1,,,13.716801,100.533128
,4690000,18000,35,,,1,1,,,13.788905,100.545271
,4580000,,29,,,1,1,,,13.685642,100.610619
แอชตัน เรสซิเด้นซ์ 41,17990000,,73,,,2,2,,,13.732784,100.572857
ลุมพินีเพลสพระราม 4-สาทร,2340000,13000,35,,,1,1,,,13.718437,100.549871
นารา ไนน์,6420000,26000,39,,,1,1,,,13.71782,100.532711
333 ริเวอร์ไซด์,5980000,,45,,,1,1,,,13.806523,100.51946
,9200000,45000,55,,,1,1,,,13.72271,100.582783
ไอดีโอ สุขุมวิท 93,3700000,,31,,,1,1,,,13.698563,100.604805
ไอดีโอ คิว สยาม - ราชเทวี,6770000,,34,,,1,1,,,13.75301,100.533877
เมย์แฟร์ เพลส สุขุมวิท 50,5280000,,44,,,2,1,,,13.704712,100.594891
ริทึ่ม สุขุมวิท 44/1,8200000,45000,52,,,2,1,,,13.715212,100.590594
ยู ดีไลท์ เรสซิเดนซ์ ริเวอร์ฟรอนท์ พระราม 3,5200000,,51,,,1,1,,,13.675303,100.532792
,13290000,,72,,,2,2,,,13.739801,100.551763
ไอดีโอ บลูโคฟ สาทร,3730000,,35,,,1,1,,,13.721972,100.495807
,3900000,,43,,7,1,1,,2,13.775661,100.484885
ไอดีโอ โมบิ สาทร,8510638,,39,,,1,1,,,13.721271,100.500588
The Room พระราม 4,8620000,35000,45,,,1,1,,,13.736319,100.52076
นิช โมโน รัชวิภา,2450000,,30,,,1,1,,,13.830892,100.540084
ริทึ่ม รางน้ำ,6950000,,35,,,1,1,,,13.761155,100.536971
ไลฟ์ สุขุมวิท 48,5369000,25000,39,,,2,1,,,13.711512,100.594775
,4800000,17000,58,,,2,1,,,13.719319,100.455781
,6780000,,30,,,1,1,,,13.722468,100.58455
โนเบิล เพลินจิต,17740000,,69,,,2,1,,,13.743764,100.54861
ชีวาทัย เรสซิเดนซ์ อโศก,6390000,,39,,,1,1,,,13.753899,100.564346
,9120000,,38,,,1,1,,,13.722079,100.55337
,6710000,28000,42,,,2,1,,,13.754267,100.564468
ควอทโทร บาย แสนสิริ,13800000,52000,55,,,1,1,,,13.727561,100.581708
เลอ โมนาโค เรสซิเด้นท์,55975000,,361,,,4,3,,,13.787488,100.544007
ไอดีโอ ท่าพระ อินเตอร์เชนจ์,2957446,,28,,,1,1,,,13.728973,100.475815
เดอะ ซี๊ด มิงเกิ้ล,5200000,,41,,,1,1,,,13.719886,100.539537
ริทึ่ม อโศก 2,4690000,,27,,,1,1,,,13.75391,100.564837
ยู ดีไลท์ @ ห้วยขวาง สเตชั่น,3730000,,42,,,1,1,,,13.772236,100.579882
ไอดีโอ สาทร-ท่าพระ,2520000,12000,22,,,,1,,,13.717258,100.482319
ไอดีโอมิกซ์ สุขุมวิท 103 ,3470000,,30,,,1,1,,,13.680549,100.610491
ไอดีโอ โมบิ สุขุมวิท,5200000,,43,,,1,,,,13.704024,100.602008
ไอดีโอ โมบิ สุขุมวิท อีสท์เกต,2590000,,22,,,1,1,1,1,13.665637,100.603751
ไอดีโอ สุขุมวิท 93,4330000,,34,,,1,1,,,13.698563,100.604805
โนเบิล รีวอลฟ์ รัชดา 2,3850000,,25,,,1,1,,,13.763628,100.569442
ไอดีโอ สาทร-ตากสิน,5860000,,70,,,2,2,,,13.720185,100.502037
,2680000,,30,,,1,1,,,13.716547,100.600686
ไลฟ์ รัชดาภิเษก,7450000,30000,56,,,1,1,,,13.790669,100.574196
,3340000,,26,,,1,1,,,13.75598,100.568231
โว๊ค สุขุมวิท 16,7950000,,70,,,2,2,,,13.727937,100.560895
เวีย 49,6000000,,35,,,1,1,,,13.730276,100.575962
เดอะ คีย์ สาทร-เจริญราษฎร์,6181443,,56,,,2,2,,,13.701033,100.516013
ไลฟ์ อโศก,4350000,,29,,,1,1,,,13.750283,100.564773
วิช ซิกเนเจอร์ มิดทาวน์ สยาม,8600000,,47,,,2,1,,,13.751983,100.534693
คาซ่า คอนโด อโศก-ดินแดง ,3730000,,31,,,1,1,,,13.760815,100.555733
,5500000,25000,33,,,1,1,,,13.757169,100.5354
ไลฟ์ สุขุมวิท 48,4520000,,40,,,1,1,,,13.711512,100.594775
,6500000,30000,108,,,2,2,,,13.746928,100.556054
นารา ไนน์,9800000,,66,,,2,2,,,13.71782,100.532711
เอช สุขุมวิท 43,9280000,45000,40,,,1,1,,,13.732767,100.574008
เดอะ เซนต์ เรสิเดนเซส ,3920000,,30,,,1,1,,,,
เดอะ คีย์ สาทร-เจริญราษฎร์,3800000,,35,,,1,1,,,13.701033,100.516013
แอชตัน สีลม,24740000,,87,,,2,2,,,13.726391,100.526828
โนเบิล เพลินจิต,16690000,55000,58,,,1,1,,,13.743764,100.54861
,6800000,,34,,,1,1,,,13.755577,100.564376
,4770000,,68,,,2,2,,,13.771975,100.57779
คลาส สารสิน ราชดำริ,22700000,,113,,,3,3,,,13.734327,100.542196
เมโทร สกาย รัชดา,3410000,14000,35,,,2,1,,,13.784071,100.571346
333 ริเวอร์ไซด์,16000000,,94,,,2,2,,,13.806523,100.51946
ไลฟ์ แอท ท่าพระ,2450000,,42,,,1,1,,,13.718129,100.48015
,3670000,,27,,,,1,,,13.754357,100.563878
เอดจ์ สุขุมวิท 23,9490000,,43,,,1,1,,,13.736521,100.563365
เอ็มบี แกรนด์ พหลโยธิน,6390000,,61,,,2,1,,,13.787805,100.54722
ริเวอร์เฮเว่น คอนโดมิเนียม,6170000,,50,,,1,1,,,13.695135,100.494629
,8230000,,35,,,1,1,,,13.722468,100.58455
,3200000,30000,53,,,1,1,,,13.7398,100.540759
ศุภาลัย ริเวอร์ เพลส,4450000,,50,,,1,1,,,13.710744,100.502763
ไอดีโอโมบิ วงศ์สว่าง-อินเตอร์เชนจ์,3000000,,22,,,1,1,,,13.818953,100.532139
เดอะ ไลน์ ราชเทวี,33950000,,105,,,3,3,,,13.752446,100.533475
แอชตัน จุฬา-สีลม,12930000,,58,,,2,2,,,13.731096,100.531012
คลาส สยาม,9991000,,57,,,2,2,,,13.747592,100.528244
,3300000,14000,22,,,,1,,,13.754267,100.564468
ศุภาลัย ไลท์ รัชดาฯ-นราธิวาส-สาทร,2925200,,35,,,1,1,,,13.7023,100.542247
วิสซ์ดอม คอนเนค สุขุมวิท,4600000,,29,,,1,1,,,13.685642,100.610619
ศุภาลัย ริเวอร์ เพลส,4790000,,53,,,1,1,,,13.710744,100.502763
ไลฟ์ แอท รัชดา-ห้วยขวาง,4800000,,46,,,1,1,,,13.778809,100.574207
บ้านสาทร เจ้าพระยา,5920000,,74,,,1,1,,,13.718971,100.509141
ดิ แอดเดรส สาทร,10600000,,56,,,1,1,,,13.722747,100.52563
เดอะ ซี้ด เมมโมรี่ สยาม,6710000,,45,,,1,1,,,13.747857,100.528447
คอนโดเลต ดเวล สุขุมวิท 26,4580000,23000,32,,,1,1,,,13.725771,100.570379
มาเอสโตร 02 ร่วมฤดี,5850000,,37,,,1,1,,,13.73583,100.550698
เดอะ ลุมพินี 24,6710000,,32,,,1,1,,,13.722535,100.566242
,28000000,110000,152,,,3,3,,,13.725069,100.564216
วิลล่า สาทร,5460000,23000,56,,,1,1,,,13.721234,100.504148
,5500000,,35,,,1,1,,,13.725192,100.574495
ริทึ่ม อโศก 2,4420000,,28,,,1,1,,,13.75391,100.564837
,15000000,60000,102,,,3,2,,,13.760067,100.569381
เดอะ คีย์ สาทร-ราชพฤกษ์,5700000,,55,,,2,2,,,13.712998,100.465803
เดอะ ฟ้า อารีย์,11180000,,98,,,2,2,,,13.782491,100.542372
ไลฟ์ สุขุมวิท 48,3670000,,33,,,1,1,,,13.711512,100.594775
โนเบิล รีวีล,9020000,40000,53,,,1,1,,,13.721926,100.584844
ไลฟ์ อโศก,5260000,,35,,,1,1,,,13.750283,100.564773
พญาไทเพลส,6590000,23000,56,,,1,1,,,13.758526,100.533874
,4950000,,46,,,2,1,1,3,,
ดิ แอดเดรส อโศก,7130000,26000,46,,,1,1,,,13.749514,100.561981
วิลล่า ราชเทวี,10540000,39000,55,,,1,1,,,13.754345,100.532544
ไอดีโอ โมบิ อโศก,4810000,,26,,,1,1,,,13.748426,100.565972
เดอะ เซนต์ เรสิเดนเซส ,2940000,,29,,,1,1,,,13.811758,100.560022
แอสปาย พระราม9,5400000,,39,,,1,1,,,13.754805,100.566923
ฮาร์โมนีลิฟวิ่ง,8000000,,97,,,2,2,,,13.787424,100.546179
โนเบิล รีฟอร์ม,10200000,40000,53,,,1,1,,,13.781067,100.544971
วิสซ์ดอม คอนเนค สุขุมวิท,4190000,,30,,,1,1,,,13.685642,100.610619
แอชตัน จุฬา-สีลม,6250000,,31,,,1,1,,,13.731096,100.531012
แอสปาย พระราม9,5900000,,49,,,2,1,,,13.754805,100.566923
ไอวี่ ทองหล่อ,7234000,,35,,,1,1,,,13.737175,100.583555
ซี เอกมัย,4020000,,32,,,1,1,,,13.740205,100.589785
,8880000,,38,,,1,1,,,13.722079,100.55337
ไลฟ์ อโศก-พระราม 9 ,3750000,,28,,,,1,,,13.754357,100.563878
,6000000,,46,,,1,1,,,13.746901,100.556471
เซอร์เคิล ลิฟวิ่ง โปรโตไทพ์,10110000,,77,,,2,2,,,13.75008,100.556067
ไลฟ์ แอท สาทร 10,9570000,,65,,,2,2,,,13.7226,100.527373
ไนท์บริดจ์ ไพร์ม สาทร,7248000,,58,,,1,1,,,13.716801,100.533128
แอสปาย สาทร-ตากสิน ทิมเบอร์ โซน,3150000,,30,,,1,1,,,13.715635,100.479962
แอสปาย สาทร-ตากสิน ทิมเบอร์ โซน,3200000,,27,,,1,1,,,13.715635,100.479962
โนเบิล รีโว สีลม,9793814,,66,,,2,2,,,13.719509,100.519492
เดอะ เทมโป แกรนด์ สาทร-วุฒากาศ,3400000,,30,,,1,1,,,13.712604,100.467943
ศุภาลัย พรีเมียร์ เจริญนคร,9830000,,86,,,2,2,,,13.729919,100.5075
แอชตัน จุฬา-สีลม,9950000,,35,,,1,1,,,13.731096,100.531012
แอชตัน อโศก,10670000,,36,,,1,1,,,13.738898,100.5609
,2780000,,33,,,1,1,,,13.679026,100.527594
เดอะ เซนต์ เรสิเดนเซส ,4020000,,30,,,1,1,,,,
แอชตัน สีลม,24471800,,86,,,2,2,,,13.726391,100.526828
เดอะ พาร์คแลนด์ ตากสิน-ท่าพระ,2980000,10000,40,,,1,1,,,13.716554,100.480646
แอสปาย สาทร-ท่าพระ,3960000,,31,,,1,1,,,13.715635,100.479962
เซอร์เคิล สุขุมวิท 11,7290000,,47,,,1,1,,,13.749738,100.556046
ไนท์บริดจ์ ไพร์ม สาทร,6760000,,31,,,1,1,,,13.716801,100.533128
ยู ดีไลท์ เรสซิเดนซ์ ริเวอร์ฟรอนท์ พระราม 3,4050000,,41,,,1,1,,,13.675303,100.532792
แอสปาย พระราม 4,2600000,15000,28,,,1,1,,,13.712091,100.584143
มิราจ สุขุมวิท 27,7200000,,46,,,1,1,,,13.735297,100.564494
,7190000,30000,30,,,1,1,,,13.725512,100.566204
คาซ่า คอนโด รัชดา-ราชพฤกษ์ ,2300000,,27,,,1,1,,,13.713727,100.476237
ไอดีโอ สาทร-ท่าพระ,2287234,12000,21,,,,1,,,13.717258,100.482319
,4611000,,29,,,1,1,,,,
,3460000,16000,22,,,,1,,,13.754267,100.564468
,6570000,,41,,,1,1,,,13.75598,100.568231
วิลล่า สาทร,8200000,,83,,,1,2,,,13.721234,100.504148
,7090000,28000,59,,,2,2,,,13.744899,100.583468
เดอะ เซนต์ เรสิเดนเซส ,4110000,,30,,,1,1,,,,
,4200000,,32,,,1,1,,,,
,9200000,,66,,,2,2,,,13.788905,100.545271
เดอะ พาโน ริเวอร์ฟรอนท์ ลิฟวิ่ง เซนเซชั่น,79000000,,501,,,3,4,,,13.671397,100.541818
สิริ แอท สุขุมวิท,18090000,50000,68,,,2,2,,,13.722573,100.580227
ชีวาทัย เรสซิเดนซ์ อโศก,5310000,,28,,,1,1,,,13.753899,100.564346
ดิ อิสสระ ลาดพร้าว,5780000,20000,53,,,1,1,,,13.80886,100.567982
แม่น้ำ เรสซิเดนท์,12000000,,77,,,2,2,,,13.705249,100.506916
เวอร์ทิค พระราม 4 - สยาม,11180000,,72,,,2,2,,,13.732053,100.525497
แอชตัน อโศก,17530000,,65,,,2,2,,,13.738898,100.5609
,6210000,,42,,,1,1,,,13.790049,100.547449
ไอดีโอ คิว ราชเทวี,6660000,,34,,,1,1,,,13.75282,100.533865
ไลฟ์ อโศก-พระราม 9 ,4837000,,35,,,1,1,,,13.754357,100.563878
แอสปาย สาทร-ท่าพระ,5550000,20000,46,,,2,1,,,13.715635,100.479962
,25000000,,135,,,2,2,,,13.723244,100.568565
ชาโตว์ อินทาวน์ พหลโยธิน 11,4050000,,44,,,2,1,,,13.787675,100.544579
,7450000,,50,,,2,2,,,13.695377,100.605772
โนเบิล รีวอลฟ์ รัชดา 2,7750000,,39,,,2,1,,,13.763628,100.569442
วายน์ สุขุมวิท,4600000,,40,,,1,1,,,13.712821,100.594265
ไลฟ์ สุขุมวิท 48,4450000,20000,30,,,1,1,,,13.711512,100.594775
มาสเตอร์วิว เอ็กเซ็กคิวทีฟ เพลส,2350000,,43,,,1,1,,,13.712683,100.499609
แอชตัน จุฬา-สีลม,7808636,,35,,,1,1,,,13.731096,100.531012
ริทึ่ม รางน้ำ,11480000,,57,,,2,2,,,13.761155,100.536971
เดอะ สกาย สุขุมวิท,3720000,,35,,,1,1,,,13.674922,100.611092
,4685000,,30,,,1,1,,,13.734894,100.556933
,5290000,26000,59,,,2,2,,,13.804437,100.576231
ไอดีโอ คิว ราชเทวี,11400000,,60,,,2,2,,,13.75282,100.533865
,6700000,,35,,,1,1,,,13.722645,100.57687
,5350000,,46,,,1,1,,,13.790669,100.574196
ดิ เอส อโศก,26900000,,125,,,4,4,,,13.743168,100.561734
เดอะ รูม สาทร-เซนต์หลุยส์,4630000,,35,,,1,1,,,13.707455,100.526693
ไลฟ์ อโศก-พระราม 9 ,6250000,,40,,,1,1,,,13.754357,100.563878
,6380000,,52,,,1,1,,,13.697412,100.540629
โซซิโอ เรฟเฟอเรนซ์ 61,6400000,35000,46,,,1,1,,,13.724752,100.583137
ลิฟ แอท 49,9900000,42000,53,,,1,1,,,13.728634,100.575585
แอชตัน สีลม,7720000,,31,,,1,1,,,13.726391,100.526828
,14000000,45000,98,,,2,2,,,13.719323,100.531126
ศุภาลัย พรีเมียร์ เจริญนคร,3923711,,35,,,1,1,,,13.729919,100.5075
,14440000,,70,,,2,2,,,13.722468,100.58455
,8400000,40000,70,,,2,2,,,13.734664,100.584833
มาเอสโตร 12 ราชเทวี,5770000,25000,35,,,1,1,,,13.753911,100.529584
เซ็นทริค รัชดา-สุทธิสาร,6800000,,55,,,2,2,,,13.789912,100.573599
,7660000,30000,56,,,1,1,,,13.724,100.530389
ซาริ บาย แสนสิริ,4900000,20000,47,,,1,1,,,13.687312,100.606829
,4650000,,29,,,1,1,,,13.755821,100.566363
วิลล่า สาทร,7450000,22000,59,,,1,1,,,13.721234,100.504148
ไอดีโอ สุขุมวิท 93,4650000,,35,,,1,1,,,13.698563,100.604805
ริทึ่ม รางน้ำ,7050000,,35,,,1,1,,,13.761155,100.536971
,2770000,,35,,,1,1,,,13.773273,100.492941
มาเอสโตร 12 ราชเทวี,5050000,22000,37,,,1,1,,,13.753911,100.529584
ริทึ่ม อโศก 2,4330000,,27,,,1,1,,,13.75391,100.564837
เออร์บาโน่ แอบโซลูท สาทร-ตากสิน,3710000,20000,,,,1,1,,,13.721125,100.507202
ไลฟ์ อโศก,4230000,,29,,,1,1,,,13.750283,100.564773
ยู ดีไลท์ เรสซิเดนซ์ ริเวอร์ฟรอนท์ พระราม 3,3800000,18000,34,,,1,1,,,13.675303,100.532792
168 สุขุมวิท 36,3870000,,27,,,,,1,1,13.717073,100.576257
แอสปาย รัชดา–วงศ์สว่าง,2430000,,26,,,1,1,,,13.830736,100.525306
แอสปาย พระราม 4,2860000,16000,28,,,1,1,,,13.712091,100.584143
,5300000,,48,,,1,1,,,13.729919,100.5075
เดอะ ไลน์ ราชเทวี,7320000,,28,,,1,1,,,13.752446,100.533475
ซิงค์ เนเจอร์ แอท สยาม,8090000,,48,,,1,1,,,13.74794,100.527391
เดอะ ริเวอร์,13830000,42000,63,,,1,1,,,13.721558,100.510307
คาซ่า คอนโด อโศก-ดินแดง ,3120000,12000,30,,,1,1,,,13.760815,100.555733
,6555600,,55,,,1,1,,,13.739371,100.55033
ริทึ่ม รางน้ำ,6790000,,35,,,1,1,,,13.761155,100.536971
ริทึ่ม รัชดา,5200000,,45,,,1,1,,,13.798751,100.575843
ไดมอนด์ รัชดา คอนโดมิเนียม,5500000,,60,,,2,2,,,13.774692,100.573953
เดอะเพรสซิเดนท์ สุขุมวิท,4790000,18000,35,,,1,1,,,13.707177,100.585732
ไดมอนด์ รัชดา คอนโดมิเนียม,6600000,30000,60,,,2,2,,,13.774692,100.573953
,3430000,15000,36,,,1,1,,,13.713493,100.586719
เดอะ ไลน์ สุขุมวิท 71,4650000,,30,,,1,1,,,13.715203,100.594754
สุขุมวิทสวีท,6180000,,72,,,1,1,,,13.742824,100.55762
ไอดีโอ ลาดพร้าว 5,10600000,,80,,,2,2,,,13.810582,100.565777
,5390000,,36,,,1,1,,,13.75598,100.568231
ไอดีโอ ท่าพระ อินเตอร์เชนจ์,2840000,,28,,,1,1,,,13.728973,100.475815
คิวเฮ้าส์คอนโด สุขุมวิท 79,10000000,,60,,,2,2,,,13.707504,100.600429
ดิ แอดเดรส อโศก,9720000,,65,,,2,2,,,13.749514,100.561981
ดิ เอ็มไพร์ เพลส สาทร,8300000,30000,65,,,1,1,,,13.719323,100.531126
,18500000,80000,100,,,2,3,,,13.723244,100.568565
วิลล่า สาทร,5000000,18000,42,,,1,1,,,13.721234,100.504148
เดอะเพรสซิเดนท์ สุขุมวิท,6300000,27000,51,,,2,1,,,13.707177,100.585732
ริทึ่ม รัชดา,10200000,,72,,,2,2,,,13.798751,100.575843
แอชตัน เรสซิเด้นซ์ 41,18050000,75000,74,,,2,2,,,13.732784,100.572857
เอ สเปซ อโศก-รัชดา,2320000,12000,36,,,1,1,,,13.75685,100.560255
ดิ อิสสระ ลาดพร้าว,3550000,,35,,,1,1,,,13.80886,100.567982
เดอะ เพรสซิเดนท์ สาทร-ราชพฤกษ์ 2,2930000,,30,,,1,1,,,13.719384,100.458654
ไอดีโอ คิว ราชเทวี,5470000,,34,,,1,1,,,13.75282,100.533865
ไอดีโอ ลาดพร้าว 5,4900000,20000,58,,,2,1,,,13.810582,100.565777
,3710000,,23,,,1,1,,,,
,3990000,,64,,,1,1,1,2,13.803012,100.57015
,9300000,,37,,,1,1,,,13.722079,100.55337
เดอะ ไลน์ อโศก-รัชดา,6426400,,35,,,1,1,,,13.755979,100.563553
,27840000,,425,,,4,5,,,13.745965,100.557051
เดอะ ซิกเนเจอร์ บาย เออร์บาโน่,8774000,28000,49,,,2,1,,,13.792876,100.549181
,4000000,17000,41,,,1,1,,,13.804437,100.576231
,6390000,,41,,,1,1,,,13.75598,100.568231
,31020000,,265,,,2,2,,,13.746928,100.556054
ริทึ่ม สุขุมวิท 44/1,,,35,,,1,1,,,13.715212,100.590594
,3800000,,40,,,1,1,,,13.804437,100.576231
แอสปาย สุขุมวิท 48,3040000,15000,32,,,1,1,,,13.71118,100.593972
โอกะ เฮ้าส์ สุขุมวิท 36,6817000,,41,,,2,1,,,13.71581,100.574985
เซ็นทริคซีน สุขุมวิท 64,3870000,,40,,,1,1,,,13.683711,100.61034
เดอะ เซนต์ เรสิเดนเซส ,4560000,,31,,,1,1,,,,
เดอะ เทรนดี้ คอนโดมิเนียม,4260000,22000,36,,,,1,,,13.740529,100.5579
เดอะ เซนต์ เรสิเดนเซส ,3930000,,30,,,1,1,,,13.811758,100.560022
ซี เอกมัย,3460000,,30,,,1,1,,,13.740205,100.589785
แม่น้ำ เรสซิเดนท์,12500000,,65,,,2,2,,,13.705249,100.506916
The Room สุขุมวิท 21,24400000,100000,128,,,2,3,,,13.743606,100.561252
ไลฟ์ อโศก,4150000,,29,,,1,1,,,13.750283,100.564773
เออร์บาโน่ แอบโซลูท สาทร-ตากสิน,7600000,,75,,,2,2,,,13.721125,100.507202
ทรูทองหล่อ,4450000,,36,,,1,1,,,13.744202,100.58534
ไฮด์ สุขุมวิท,23720000,,107,,,3,3,,,13.740361,100.557288
ริทึ่ม อโศก 2,4240000,,28,,,1,1,,,13.75391,100.564837
ไลฟ์ อโศก,5000000,,35,,,1,1,,,13.750283,100.564773
วิลล่า ราชเทวี,9050000,,57,,,1,1,,,13.754345,100.532544
,5410000,22000,28,,,,1,,,13.761155,100.536971
ไซมิส ราชครู,4500000,,31,,,1,1,1,,13.775901,100.543067
,4800000,40000,45,,,1,1,,,100.524614,13.716013
เดอะ เบส สุขุมวิท 77,6330000,,57,,,2,2,,,13.710945,100.602343
ดิ เอดิเตอร์ สะพายควาย,6000000,,37,,,1,1,,,13.794136,100.549538
เดอะ คีย์ สาทร-ราชพฤกษ์,2474000,,32,,,1,1,,,13.712998,100.465803
ออนิกซ์ พหลโยธิน,6200000,22000,40,,,1,1,,,13.791457,100.548475
แอสปาย พระราม9,3990000,,39,,,1,1,,,13.754805,100.566923
แบงค์คอก เฟ'ลิซ @สถานีกรุงธนบุรี,3720000,,33,,,1,1,,,13.72216,100.502669
,11750000,,57,,,1,1,,,13.727726,100.575105
ไอดีโอเวิร์ฟ,5320000,,37,,,1,1,,,13.754496,100.54253
,3490000,,25,,,,1,,,13.695377,100.605772
แอชตัน สีลม,7630000,,49,,,1,1,,,13.726391,100.526828
,9737000,,52,,,2,2,,,13.758942,100.532757
,3170000,,28,,,,1,,,13.728973,100.475815
เดอะ เซนต์ เรสิเดนเซส ,6290000,,35,,,1,1,,,13.811758,100.560022
เดอะ เนสท์ เพลินจิต,5000000,,37,,,1,1,,,13.74633,100.549386
เดอะทรัสต์ เรสซิเด้นซ์ รัชดา-พระราม 3,2300000,,29,,,1,1,,,13.694152,100.536283
,3510000,,27,,,,1,,,13.754357,100.563878
,4200000,,29,,,1,1,,,13.722909,100.576852
คอนโดเลต พิกเซล สาทร,5320000,25000,35,,,1,1,,,13.718225,100.549333
,3900000,,43,,7,1,1,,2,13.775661,100.484885
สุขุมวิทลีฟวิ่งทาวน์,6280000,,60,,,1,1,,,13.746257,100.562402
โนเบิล รีโว สีลม,9100000,,66,,,2,2,,,13.719509,100.519492
,5490000,,35,,,1,1,,,13.725192,100.574495
ริทึ่ม รัชดา-ห้วยขวาง,5830000,,45,,,1,1,,,13.77788,100.573958
,13300000,65000,120,,,2,2,,,13.792045,100.547563
ไลฟ์ แอท รัชดา-ห้วยขวาง,4260000,17000,41,,,1,1,,,13.778809,100.574207
สมาร์ท พระราม 2,900000,,29,,,1,1,1,1,13.6582,100.428433
,5600000,22000,45,,,1,1,,,13.788905,100.545271
ริทึ่ม สุขุมวิท 44/1,6390000,27000,35,,,1,1,,,13.715212,100.590594
,10980000,,43,,,1,1,,,13.755577,100.564376
,5120000,,49,,4,1,1,1,,,
ไลฟ์ สุขุมวิท 48,3560000,,33,,,1,1,,,13.711512,100.594775
วิช ซิกเนเจอร์ มิดทาวน์ สยาม,6110000,,30,,,1,1,,,13.751983,100.534693
,4600000,20000,42,,,1,1,,,13.717117,100.589111
,4050000,,39,,,1,1,,,13.703378,100.540306
แอสปาย สุขุมวิท 48,3200000,,32,,,1,1,,,13.71118,100.593972
,4250000,,32,,,1,1,,,13.797477,100.55176
,5430000,23000,34,,,1,1,,,13.729786,100.527884
ดิ แอดเดรส อโศก,5700000,30000,35,,,1,1,,,13.749514,100.561981
ไลฟ์ อโศก,9500000,45000,55,,,1,1,,,13.750283,100.564773
,4255000,25000,66,,,1,1,,,13.737524,100.553199
รีเจ้นท์ ออคิด สุขุมวิท 101,2250000,,29,,,1,1,,,13.691353,100.610298
แชปเตอร์วัน มิดทาวน์ ลาดพร้าว 24,2480000,,23,,,1,1,,,13.806471,100.572747
,5500000,,46,,,1,1,,,13.798751,100.575843
มาเอสโตร 07 อนุสาวรีย์,4150000,,27,,,,1,,,13.755287,100.530902
ไลฟ์ แอท สาทร 10,5680000,20000,41,,,1,1,,,13.7226,100.527373
แอชตัน อโศก,10825000,,34,,,,1,,,13.738898,100.5609
,5025000,,35,,,1,1,,,13.754357,100.563878
,18000000,95000,134,,,3,1,,,13.721248,100.517142
เดอะ พาร์คแลนด์ รัชดา-ท่าพระ,2380000,,30,,,1,1,,,13.71039,100.479278
เลอ ลัก คอนโดมิเนียม,5860000,,45,,,1,1,,,13.714591,100.593232
ไอดีโอ สุขุมวิท 93,3500000,,25,,,1,1,,,13.698563,100.604805
,6900000,25000,60,,,2,2,,,13.778353,100.57407
แมกโนเลียส์ วอเตอร์ฟรอนท์ เรสซิเดนซ์ ณ ไอคอนสยาม,17422680,,66,,,1,1,,,13.727956,100.511167
,3730000,,36,,,1,1,,,13.710945,100.602343
วิลล่า สาทร,6600000,30000,55,,,1,1,,,13.721234,100.504148
ไอดีโอ โมบิ สุขุมวิท,6300000,,44,,,1,1,,,13.704024,100.602008
,8960000,,33,,,1,1,,,13.719733,100.522404
,24470000,85000,105,,,2,2,,,13.728092,100.568592
,3000000,,35,,,1,1,,,13.7023,100.542247
บลอคส์ 77,6800000,30000,61,,,2,2,1,3,13.710329,100.601871
เบญจศรีคอนโดมิเนียม,10640000,,118,,,2,2,,,13.75864,100.533476
,5240000,,48,,,1,1,,,13.729919,100.5075
,3500000,,35,,,1,1,,,13.725077,100.568533
ไฮด์ สุขุมวิท,13800000,,77,,,2,2,,,13.740361,100.557288
เดอะ ดิโพลแมท 39,24450000,,83,,,2,2,,,13.731507,100.570729
ไดมอนด์ สุขุมวิท,6390000,24000,50,,,2,2,,,13.708239,100.59886
ฟิวส์ จันทน์-สาทร,3200000,,30,,,1,1,,,13.705683,100.530433
ไลฟ์ สุขุมวิท 48,3690000,,33,,,1,1,,,13.711512,100.594775
เดอะ ไลน์ จตุจักร-หมอชิต,4620000,,26,,,1,1,,,13.806244,100.556048
คาซ่า คอนโด รัชดา-ท่าพระ ,5800000,25000,55,,,2,2,,,13.713727,100.476237
ริทึ่ม สุขุมวิท,7340000,27000,46,,,1,1,,,13.706522,100.59934
เดอะ ไลน์ จตุจักร-หมอชิต,4860000,,27,,,1,1,,,13.806244,100.556048
ชีวาทัย ราชปรารภ,24380000,,301,,,3,3,,,13.76182,100.542531
โนเบิล บี ไนน์ทีน,14360000,,59,,,2,1,,,13.74228,100.559167
,4580000,23000,42,,,1,1,,,13.717117,100.589111
วิสซ์ดอม อเวนิว รัชดา-ลาดพร้าว,2690000,,23,,,,1,,,13.713712,100.478352
The Room พระราม 4,7700000,,45,,,1,1,,,13.736319,100.52076
วิลล่าอโศก,7000000,,48,,,1,1,,,13.748849,100.561572
ริทึ่ม อโศก 2,4850000,,28,,,1,1,,,13.75391,100.564837
วิสซ์ดอม สเตชั่น รัชดา-ท่าพระ,2560000,,23,,,,1,,,13.713712,100.478352
แบงค์คอกเฟลิซ สุขุมวิท 69,9900000,,79,,,3,2,,,13.715325,100.592021
ไอดีโอเวิร์ฟ,9095000,,69,,,2,2,,,13.754496,100.54253
ฟิวส์ สาทร - ตากสิน,3810000,,32,,,1,1,,,13.720432,100.496983
,16500000,,102,,,2,1,,,13.724999,100.582888
,23500000,,322,,,3,3,,,13.735154,100.553447
,24000000,,86,,,2,2,,,13.738779,100.561802
ดิ แอดเดรส อโศก,7660000,30000,45,,,1,1,,,13.749514,100.561981
ไฮด์ สุขุมวิท,22000000,,113,,,2,2,,,13.740361,100.557288
,6500000,30000,43,,,,1,,,13.724502,100.577252
แอสปาย สาทร-ท่าพระ,5550000,20000,46,,,2,1,,,13.715635,100.479962
,3350000,,29,,,1,1,,,13.772054,100.579979
ดิ แอดเดรส สาทร,7870000,30000,56,,,1,1,,,13.722747,100.52563
The Room เจริญกรุง 30,12770000,60000,54,,,1,1,,,13.728981,100.515637
,4200000,,28,,,,1,,,13.755979,100.563553
แบงค์คอก ฮอไรซอน รัชดา-ท่าพระ,2270000,,28,,,1,1,,,13.708066,100.480649
,8660000,,47,,,1,1,,,13.739801,100.551763
สุพรีม คอนโด ราชวิถี 3,3520000,,33,,,1,1,,,13.762672,100.540663
เดอะ ไลน์ อโศก-รัชดา,8490000,,47,,,2,1,,,13.755979,100.563553
เลค อเวนิว,9800000,,87,,,1,2,,,13.731601,100.561391
,5570000,,35,,,1,1,,,13.718825,100.532778
,12760000,,91,,,2,2,,,13.720641,100.528207
เดอะ แฮบบิแทท,30000000,75000,340,,,3,3,,,13.733234,100.578052
แบงค์คอก ฮอไรซอน รัชดา-ท่าพระ,2930000,,32,,,1,1,,,13.708066,100.480649
เออร์บาโน่ แอบโซลูท สาทร-ตากสิน,7600000,,75,,,2,2,,,13.721125,100.507202
แอชตัน จุฬา-สีลม,15880000,,63,,,2,2,,,13.731096,100.531012
เลอ โคเต้ ทองหล่อ 8,3950000,20000,30,,,1,1,,,13.731013,100.582694
,12380000,,55,,,2,1,,,13.725512,100.566204
สิริ แอท สุขุมวิท,9000000,32000,52,,,1,1,,,13.722573,100.580227
เดอะ ไลน์ จตุจักร-หมอชิต,4610000,,26,,,1,1,,,13.806244,100.556048
,6450000,,41,,,1,1,,,13.75598,100.568231
,3179000,,30,,,1,1,,,13.789345,100.563723
,4680000,25000,45,,,,1,,,13.739804,100.541013
เอดจ์ สุขุมวิท 23,9600000,45000,42,,,1,1,,,13.736521,100.563365
วิสซ์ดอม อเวนิว รัชดา-ลาดพร้าว,6000000,,35,,,1,1,,,13.80522,100.574214
ศุภาลัย ริเวอร์ เพลส,3723000,50000,41,,,1,1,,,13.710744,100.502763
แอสปาย สุขุมวิท 48,4150000,,38,,,1,1,,,13.71118,100.593972
ดิ อิสสระ ลาดพร้าว,5360000,,52,,,1,1,,,13.80886,100.567982
แอชตัน สีลม,19041238,,72,,,2,2,,,13.726391,100.526828
เวนิโอ สุขุมวิท 10,6900000,22500,34,,,1,1,,,13.734894,100.556933
ศุภาลัย เอลีท แอท พญาไท,11400000,,84,,,2,2,,,13.756987,100.539217
แอสปาย รัชดา–วงศ์สว่าง,2110000,,26,,,1,1,,,13.830736,100.525306
ฮิว สุขุมวิท,2760000,,26,,,1,1,,,13.689117,100.60886
เซ็นทริคซีน สุขุมวิท 64,3730000,10000,33,,,1,1,,,13.683711,100.61034
ไลฟ์ อโศก,4320000,,29,,,1,1,,,13.750283,100.564773
ไอดีโอ สาทร-ท่าพระ,2446808,,22,,,1,1,,,13.717258,100.482319
,4120000,,29,,,1,1,,,13.722909,100.576852
,4100000,,29,,,1,1,,,13.730372,100.587924
The Room สุขุมวิท 21,7980000,30000,50,,,1,1,,,13.743606,100.561252
,7700000,40000,48,,,1,1,,,13.728634,100.575585
,8910000,,61,,,1,1,,,13.756987,100.539217
,10000000,,66,,,2,2,,,13.722909,100.576852
บีทนิค สุขุมวิท 32,23700000,,82,,,2,2,,,13.726547,100.575382
แอสปาย สาทร-ท่าพระ,2350000,,24,,,1,1,,,13.715635,100.479962
ไลฟ์ อโศก,3410000,,24,,,1,1,,,13.750283,100.564773
เดอะ บริส นราธิวาส,5320000,,45,,,1,1,,,13.696291,100.544662
แอชตัน สีลม,12620000,,49,,,1,1,,,13.726391,100.526828
,28000000,,180,,,3,3,,,13.723244,100.568565
,3160000,,35,,,1,1,,,13.707177,100.585732
ซี เอกมัย,5450000,,30,,,1,1,,,13.740205,100.589785
สุขุมวิทลีฟวิ่งทาวน์,7400000,,62,,,2,2,,,13.746257,100.562402
,7450000,30000,52,,,1,1,,,13.743606,100.561252
,6210000,,42,,,1,1,,,13.790049,100.547449
,5920000,,37,,,1,1,,,13.721571,100.497397
มาเอสโตร 07 อนุสาวรีย์,10500000,,68,,,2,2,,,13.755287,100.530902
333 ริเวอร์ไซด์,6090000,,45,,,1,1,,,13.806523,100.51946
,2400000,,33,,,,1,,,13.711298,100.479447
เดอะ นิช วงเวียนใหญ่-ตากสิน,2600000,,33,,,1,1,1,,13.726697,100.490966
The Room สาทร-ตากสิน,4200000,,47,,,1,1,,,13.717746,100.483477
,4500000,15000,31,,,1,1,,,13.795069,100.550558
,6974000,,33,,,1,1,,,13.743472,100.554339
แอสปาย สาทร-ท่าพระ,3230000,,31,,,1,1,,,13.715635,100.479962
แอชตัน อโศก,10825000,,34,,,,1,,,13.738898,100.5609
,6700000,,35,,,1,1,,,13.733349,100.527144
เดอะ เครสท์ สุขุมวิท 24,11500000,,,,,2,1,1,3,13.7295,100.566173
แอสปาย สาทร-ท่าพระ,3120000,,31,,,1,1,,,13.715635,100.479962
สตาร์วิว พระราม 3,12234000,32500,77,,,2,2,,,13.687433,100.517984
มาเอสโตร 03 รัชดา - พระราม 9,4320000,,29,,,1,1,,,13.76283,100.564577
ศุภาลัย ปาร์ค เอกมัย-ทองหล่อ,4550000,,54,,,1,1,,,13.742941,100.58898
คอนโดเลต ไอซ์ ราชเทวี,14850000,40000,84,,,2,1,,,13.753338,100.530981
เดอะ ลุมพินี 24,12880000,,55,,,2,2,,,13.722535,100.566242
เอสวี ซิตี้ พระราม 3 ,3200000,,85,,,2,3,,,13.673366,100.543027
ไลฟ์ อโศก,5230000,,35,,,1,1,,,13.750283,100.564773
,2722000,,26,,,,1,,,13.740556,100.60006
,6030000,,34,,,1,1,,,13.831586,100.570987
ไลฟ์ อโศก-พระราม 9 ,3800000,,28,,,,1,,,13.754357,100.563878
,5870000,,57,,,1,2,,,13.739804,100.541013
อัลติจูด ดีไฟน์,6158600,,33,,,1,1,1,1,13.731971,100.526307
ไอวี่ ริเวอร์ ราษฎร์บูรณะ ,3180000,,35,,,1,1,,,13.688184,100.492293
โนเบิล รีวอลฟ์ รัชดา,3760000,,25,,,1,1,,,13.763691,100.569463
โนเบิล รีมิกซ์,9300000,40000,61,,,1,1,,,13.724502,100.577252
แอชตัน จุฬา-สีลม,7730000,,33,,,1,1,,,13.731096,100.531012
วิสซ์ดอม สเตชั่น รัชดา-ท่าพระ,3490000,,30,,,1,1,,,13.713712,100.478352
เมโทร สกาย รัชดา,3820000,,35,,,1,1,,,13.784071,100.571346
เดอะ เทมโป แกรนด์ สาทร-วุฒากาศ,4290000,,35,,,1,1,,,13.712604,100.467943
ซี เอกมัย,3930000,,30,,,1,1,,,13.740205,100.589785
,2230000,,26,,,,1,,,13.740556,100.60006
,6560000,25000,60,,,2,2,,,13.804437,100.576231
เอดจ์ สุขุมวิท 23,6600000,,32,,,1,1,,,13.736521,100.563365
,5320000,28000,50,,,1,1,,,13.743898,100.561778
,7450000,26000,53,,,1,1,,,13.729942,100.572198
ไอดีโอมิกซ์ สุขุมวิท 103 ,10110000,,61,,,2,2,,,13.680549,100.610491
เมโทร สกาย รัชดา,2930000,,34,,,2,1,,,13.784071,100.571346
สุขุมวิทลีฟวิ่งทาวน์,6280000,,60,,,1,1,,,13.746257,100.562402
ไอดีโอ สุขุมวิท 93,4690000,,34,,,1,1,,,13.698563,100.604805
เดอะ เซนต์ เรสิเดนเซส ,8360000,,56,,,2,2,,,,
แอชตัน จุฬา-สีลม,13315000,,49,,,2,1,,,13.731096,100.531012
,270000,,35,,,1,1,,,,
,7980000,28000,45,,,1,1,,,13.715212,100.590594
ไลฟ์ อโศก,5100000,,35,,,1,1,,,13.750283,100.564773
,6040000,,35,,,1,1,,,13.748426,100.565972
เดอะ ไลน์ จตุจักร-หมอชิต,4350000,,27,,,1,1,,,13.806244,100.556048
ชีวาทัย เรสซิเดนซ์ อโศก,6290000,,40,,,1,1,,,13.753899,100.564346
,4080000,,39,,,1,2,,,13.678767,100.615866
,3336000,,25,,,,1,,,13.754357,100.563878
เดอะซี้ด สาทร - ตากสิน,2420000,,33,,,1,1,,,13.723355,100.495623
ไอดีโอ สาทร-ท่าพระ,2200000,9000,22,,,,1,,,13.717258,100.482319
คิวเฮ้าส์ คอนโด สาทร ,4850000,19000,41,,,1,1,,,13.72129,100.501253
ดิ เอ็มไพร์ เพลส สาทร,13500000,50000,99,,,2,2,,,13.719323,100.531126
,4750000,20000,38,,,1,1,,,13.714298,100.602336
เซอร์เคิล คอนโดมิเนียม,5940000,30000,48,,,1,1,,,13.749275,100.555941
,10500000,,87,,,2,2,,,13.73873,100.541509
แอสปาย สาทร-ท่าพระ,2740000,,27,,,1,1,,,13.715635,100.479962
โนเบิล รีวอลฟ์ รัชดา 2,3480000,,25,,,1,1,,,13.763628,100.569442
,26600000,95000,162,,,3,3,,,13.723244,100.568565
เดอะทรี สุขุมวิท 71-เอกมัย,2319587,,27,,,1,1,,,13.740556,100.60006
,5860000,,49,,,1,1,,,13.777757,100.544702
ริทึ่ม สุขุมวิท 44/1,9050000,,48,,,1,1,,,13.715212,100.590594
,2560000,11000,30,,,1,1,,,13.754985,100.575145
ดิ แอดเดรส สุขุมวิท 42,5500000,,45,,,1,1,,,13.716839,100.585358
,7450000,,38,,,1,1,,,13.748244,100.562727
ไลฟ์ อโศก,4120000,,29,,,1,1,,,13.750283,100.564773
แอสปาย สาทร-ท่าพระ,3030000,,31,,,1,1,,,13.715635,100.479962
แอชตัน จุฬา-สีลม,7630000,,35,,,1,1,,,13.731096,100.531012
เอสแอนด์เอส สุขุมวิท,2800000,,48,,,1,1,,,13.683741,100.614941
,4430000,,28,,,1,1,,,,
,3700000,,47,,,1,1,,,13.711298,100.479447
เซ็นจูรี่ไฮท์,25000000,,270,,,3,4,,,13.742161,100.563355
,3850000,,35,,,1,1,,,13.790923,100.543831
,7775000,25000,41,,,1,1,,,13.755583,100.532839
,7110000,,45,,,1,1,,,13.795858,100.550205
,3940000,35000,52,,,1,1,,,13.745809,100.541804
เดอะ เทมโป แกรนด์ สาทร-วุฒากาศ,2750000,,30,,,1,1,,,13.712604,100.467943
ควอทโทร บาย แสนสิริ,14000000,45000,59,,,1,1,,,13.727561,100.581708
,8300000,32000,60,,,2,2,,,13.744076,100.587201
,4356000,,38,,9,2,1,1,,,
ไนท์บริดจ์ ไพร์ม สาทร,6150000,,44,,,1,1,,,13.716801,100.533128
ริทึ่ม สาทร,11800000,57000,66,,,2,2,,,13.717856,100.516763
แอสปาย สุขุมวิท 48,3730000,,38,,,1,1,,,13.71118,100.593972
บ้านสาทร เจ้าพระยา,5900000,,55,,,1,1,,,13.718971,100.509141
วิสซ์ดอม อเวนิว รัชดา-ลาดพร้าว,4750000,16000,28,,,,1,,,13.80522,100.574214
,8500000,39000,47,,,1,1,,,13.731497,100.574932
ไอดีโอ สุขุมวิท 93,4520000,,31,,,1,1,,,13.698563,100.604805
,2890000,,24,,,,1,,,13.724903,100.563369
พาร์ค 24 เฟส 1,12400000,,55,,,1,1,,,13.725512,100.566204
เดอะ ซี๊ด มิงเกิ้ล,4850000,20000,40,,,1,1,,,13.719886,100.539537
ศุภาลัย ปาร์ค อโศก-รัชดา,2900000,15000,35,,,1,1,,,13.756092,100.560767
ไลฟ์ แอท รัชดา-ห้วยขวาง,4100000,18000,40,,,1,1,,,13.778809,100.574207
,3825000,,32,,,1,1,,,13.754357,100.563878
,5190000,,33,,,1,1,,,13.751983,100.534693
ไลฟ์ อโศก-พระราม 9 ,4740000,,35,,,1,1,,,13.754357,100.563878
ลุมพินี พาร์ค ริเวอร์ไซด์ พระราม 3	,2720000,,28,,,1,1,,,13.679026,100.527594
เดอะ เซนต์ เรสิเดนเซส ,6290000,,35,,,1,1,,,13.811758,100.560022
ฟิวส์ มิติ สุทธิสาร-รัชดา,3460000,,32,,,1,1,,,13.789345,100.563723
แอชตัน จุฬา-สีลม,6800000,,31,,,1,1,,,13.731096,100.531012
แอชตัน จุฬา-สีลม,9820000,,35,,,1,1,,,13.731096,100.531012
ไอดีโอ ลาดพร้าว 5,6280000,25000,51,,,2,2,,,13.810582,100.565777
,3450000,13000,30,,,1,1,,,13.778809,100.574207
,3910000,,28,,,1,1,,,,
ริทึ่ม อโศก 2,4360000,,28,,,1,1,,,13.75391,100.564837
,4450000,,67,,,2,2,,,13.71246,100.595447
ไอดีโอ สาทร-ท่าพระ,2500000,11000,2157,,,,1,,,13.717258,100.482319
แอชตัน จุฬา-สีลม,7900000,,35,,,1,1,,,13.731096,100.531012
อัพ เอกมัย,3800000,22000,31,,,1,1,,,13.739269,100.588721
,4880000,,35,,,1,1,,,13.695377,100.605772
ไอวี่ ริเวอร์ ราษฎร์บูรณะ ,12000000,35000,100,,,2,1,,,13.688184,100.492293
เดอะ เทมโป แกรนด์ สาทร-วุฒากาศ,2800000,,30,,,1,1,,,13.712604,100.467943
วายน์ สุขุมวิท,3830000,,30,,,1,1,,,13.712821,100.594265
ไอดีโอ สุขุมวิท 93,4150000,,32,,,1,1,,,13.698563,100.604805
ไลฟ์ อโศก,8190000,,54,,,2,1,,,13.750283,100.564773
โนเบิล รีโคล สุขุมวิท 19,7220000,,35,,,1,1,,,13.742184,100.559938
เอลลิโอ คอนโด สุขุมวิท 64,2450000,11000,30,,,1,1,,,13.684062,100.603963
,3550000,,27,,,,1,,,13.698563,100.604805
เดอะ ซี๊ด มิงเกิ้ล,5320000,,40,,,1,1,,,13.719886,100.539537
คลาส หลังสวน,21280000,,87,,,2,2,,,13.741965,100.544311
,4600000,17000,41,,,1,1,,,13.804437,100.576231
คาซ่า คอนโด รัชดา-ราชพฤกษ์ ,3830000,,35,,,1,1,,,13.713727,100.476237
ศุภาลัย พรีเมียร์ แอท ราชเทวี,21500000,,150,,,3,2,,,13.75487,100.526029
,7340000,25000,33,,,1,1,,,13.743472,100.554339
,6000000,28000,40,,,1,1,,,13.725192,100.574495
,10800000,,125,,,2,2,,,13.720641,100.528207
,2970000,,30,,,1,1,,,13.719384,100.458654
เออร์บาโน่ แอบโซลูท สาทร-ตากสิน,4500000,23000,38,,,1,1,,,13.721125,100.507202
ไลฟ์ แอท ลาดพร้าว 18,4200000,,40,,,1,1,,,13.807363,100.570213
,7110000,,35,,,1,1,,,,
โนเบิล รีวอลฟ์ รัชดา 2,3610000,,26,,,1,1,,,13.763628,100.569442
เดอะ ไลน์ จตุจักร-หมอชิต,10500000,,59,,,2,2,,,13.806244,100.556048
,13120000,,73,,,2,2,,,13.739801,100.551763
คลาส สยาม,12250000,,73,,,1,1,,,13.747592,100.528244
ฟิวส์ จันทน์-สาทร,5960000,,57,,,2,2,,,13.705683,100.530433
ไอดีโอ รัชดา-ห้วยขวาง,4230000,17000,35,,,1,1,,,13.778353,100.57407
วิชแอทสยาม คอนโดมิเนียม,3300000,,31,,,,1,1,1,13.751297,100.528204
ดิ แอดเดรส อโศก,12950000,,76,,,2,2,,,13.749514,100.561981
ศุภาลัย เวลลิงตัน ,5050000,,47,,,1,1,,,13.769198,100.578202
,9500000,,56,,,1,1,,,13.722747,100.52563
แอสปาย พระราม9,6290000,,49,,,2,2,,,13.754805,100.566923
,5600000,,49,,,2,1,,,13.711512,100.594775
วิลล่า สาทร,6000000,,57,,,1,1,,,13.721234,100.504148
มาเอสโตร 14 สยาม - ราชเทวี,5860000,,32,,,1,1,,,13.750751,100.529212
,16000000,65000,91,,,2,2,,,13.726081,100.568005
ริทึ่ม รัชดา,5320000,20000,35,,,1,1,,,13.798751,100.575843
,4460000,,31,,,1,1,,,13.74013,100.572563
,5250000,,53,,,2,2,,,13.678767,100.615866
เดอะ เทรนดี้ คอนโดมิเนียม,8000000,,65,,,2,1,,,13.740529,100.5579
ไอดีโอ สุขุมวิท 93,3320000,,26,,,1,1,,,13.698563,100.604805
มาเอสโตร 07 อนุสาวรีย์,4220000,,27,,,1,1,,,13.755287,100.530902
เออร์บาโน่ แอบโซลูท สาทร-ตากสิน,4500000,,38,,,1,1,,,13.721125,100.507202
เดอะ ไลน์ พหลโยธิน-ประดิพัทธ์,7740000,,52,,,1,1,,,13.790398,100.545904
ไอดีโอ คิว สยาม - ราชเทวี,6390000,,34,,,1,1,,,13.75301,100.533877
,20500000,,149,,,3,3,,,13.740361,100.557288
,4400000,,29,,,,1,,,13.750283,100.564773
ไอดีโอบลูโคฟ สุขุมวิท ,7000000,40000,45,,,2,1,,1,13.678583,100.608794
,11340000,,59,,,2,2,,,13.751983,100.534693
พาร์ค 24 เฟส 1,5470000,,29,,,1,1,,,13.725512,100.566204
ลุมพินี เพลส สุขสวัสดิ์ – พระราม 2,3200000,,41,,10,1,1,1,2,13.691398,100.48098
พอส สุขุมวิท 103,4150000,16000,45,,,2,2,,,13.60937,100.647731
แอชตัน อโศก,8060000,,31,,,1,1,,,13.738898,100.5609
,27840000,,425,,,4,5,,,13.745965,100.557051
เดอะ เทมโป แกรนด์ สาทร-วุฒากาศ,3180000,,30,,,1,1,,,13.712604,100.467943
เดอะ ไลน์ อโศก-รัชดา,5690000,,35,,,1,1,,,13.755979,100.563553
นารา ไนน์,9800000,,66,,,2,2,,,13.71782,100.532711
ไอดีโอ คิว ราชเทวี,6190000,,36,,,1,1,,,13.75282,100.533865
ศุภาลัย ปาร์ค พหลโยธิน 21,3300000,,42,,17,1,1,1,2,13.822965,100.565628
เซ็นทริค รัชดา-สุทธิสาร,5230000,24000,42,,,1,1,,,13.789912,100.573599
เซอร์เคิล สุขุมวิท 11,18500000,,102,,,2,2,,,13.749738,100.556046
,7600000,,55,,,1,1,,,13.717856,100.516763
คอนโดเลต พิกเซล สาทร,5000000,,37,,,1,1,,,13.718225,100.549333
เดอะ พาโน ริเวอร์ฟรอนท์ ลิฟวิ่ง เซนเซชั่น,21100000,,156,,,2,2,,,13.671397,100.541818
,9020000,,61,,,1,1,,,13.756987,100.539217
,9730000,,55,,,2,2,,,13.831586,100.570987
วินเซนเต้ สุขุมวิท 49,7000000,35000,67,,,1,1,,,13.737419,100.574615
,4580000,23000,42,,,1,1,,,13.717117,100.589111
ไลฟ์ อโศก,8560000,,55,,,2,2,,,13.750283,100.564773
เดอะ ซี้ด มูซี่,4700000,28000,34,,,1,1,,,13.725252,100.570963
ดิ เอส อโศก,19280000,,76,,,2,2,,,13.743168,100.561734
ลุมพินี พาร์ค พระราม 9-รัชดา,2380000,11500,27,,,1,1,,,13.753416,100.576341
ไลฟ์ อโศก,4280000,,29,,,1,1,,,13.750283,100.564773
ฮาเว่น ลุกซ์ พหลโยธิน,5500000,,67,,,2,1,,,13.788083,100.553623
,4770000,,68,,,2,2,,,13.771975,100.57779
เดอะ โมนูเมนต์ สนามเป้า,12371134,,47,,,1,1,,,13.76945,100.540555
เอดจ์ สุขุมวิท 23,6800000,,32,,,1,1,,,13.736521,100.563365
,4050000,,25,,,1,1,,,13.795858,100.550205
,14000000,,124,,,4,3,,,13.703378,100.540306
แอชตัน จุฬา-สีลม,5650000,,25,,,1,1,,,13.731096,100.531012
,4400000,18000,36,,,1,1,,,13.798751,100.575843
ไอดีโอ คิว จุฬา-สามย่าน,5770000,,34,,,1,1,,,13.733349,100.527144
ไฮด์ สุขุมวิท,27660000,,150,,,3,3,,,13.740361,100.557288
เดอะ ลอฟท์ เอกมัย,5300000,,28,,,1,1,,,13.718323,100.587363
วิลล่า ราชเทวี,14900000,,85,,,2,2,,,13.754345,100.532544
มาเอสโตร 14 สยาม - ราชเทวี,6190000,,32,,,1,1,,,13.750751,100.529212
ไลฟ์ อโศก,4320000,,29,,,1,1,,,13.750283,100.564773
คาซ่า คอนโด รัชดา-ท่าพระ ,2660000,,35,,,1,1,,,13.713789,100.477098
,5080000,,35,,,1,1,,,13.754357,100.563878
,2660000,,68,,,1,1,,,13.72047,100.600216
,6950000,25000,46,,,1,1,,,13.720407,100.495009
วิลล่าอโศก,6200000,,52,,,1,1,,,13.748849,100.561572
อัพ เอกมัย,5640000,25000,40,,,1,1,,,13.739269,100.588721
The Room พระราม 4,8300000,29000,45,,,1,1,,,13.736319,100.52076
,2219000,,23,,,,1,,,13.772054,100.579979
แอสปาย สุขุมวิท 48,3600000,,38,,,1,1,,,13.71118,100.593972
,3430000,,26,,,1,1,,,13.75598,100.568231
แอชตัน อโศก,8540000,,35,,,1,1,,,13.738898,100.5609
แอสไปร์ สาทร-ราชพฤกษ์,2060000,,26,,,,1,,,13.716673,100.45842
ซาริ บาย แสนสิริ,3400000,,35,,,1,1,,,13.687312,100.606829
ไลฟ์ อโศก-พระราม 9 ,4133900,,32,,,1,1,,,13.754357,100.563878
วิลล่าอโศก,13900000,,81,,,2,2,,,13.748849,100.561572
วิลล่า สาทร,,40000,83,,,2,2,,,13.721234,100.504148
เอ สเปซ อโศก-รัชดา,2320000,12000,36,,,1,1,,,13.75685,100.560255
,4755000,,35,,,1,1,,,13.754357,100.563878
ริทึ่ม รางน้ำ,10310000,,47,,,2,1,,,13.761155,100.536971
มาเอสโตร 03 รัชดา - พระราม 9,4326000,,29,,,1,1,,,13.76283,100.564577
,3800000,,50,,,2,2,,,13.678308,100.606222
ไลฟ์ รัชดาภิเษก,5500000,20000,45,,,1,1,,,13.790669,100.574196
วินด์ รัชโยธิน ,4370000,18000,40,,,1,1,,,13.828605,100.566228
พญาไทเพลส,6590000,23000,56,,,1,1,,,13.758526,100.533874
ริทึ่ม อโศก,5860000,,28,,,1,1,,,13.754267,100.564468
,12500000,60000,59,,,1,1,,,13.727726,100.575105
โนเบิล รีโคล สุขุมวิท 19,7250000,,35,,,1,1,,,13.742184,100.559938
แอชตัน อโศก,9340000,,34,,,1,1,,,13.738898,100.5609
,3940000,,35,,,1,1,,,13.79728,100.552184
,4590000,,30,,,1,1,,,,
,5960000,25000,59,,,1,1,,,13.785947,100.546182
,7000000,25000,63,,,2,2,,,13.678554,100.608607
,2820000,,30,,,1,1,,,13.753416,100.576341
,6160000,,37,,,1,1,,,13.75598,100.568231
,7980000,30000,45,,,2,1,,,13.704024,100.602008
แอชตัน จุฬา-สีลม,13850000,,58,,,2,1,,,13.731096,100.531012
วิช ซิกเนเจอร์ มิดทาวน์ สยาม,5370000,,34,,,1,1,,,13.751983,100.534693
แอสปาย พระราม9,3960000,20000,32,,,1,1,,,13.754805,100.566923
คลาส สยาม,10210000,,58,,,2,1,,,13.747592,100.528244
,3450000,,31,,,1,1,,,13.713486,100.600417
,2912000,11000,28,,,1,1,,,13.728973,100.475815
ชิดลมเพลส,41500000,,279,,,3,3,,3,13.747939,100.544483
ไอดีโอ โมบิ อโศก,6370000,,35,,,1,1,,,13.748426,100.565972
ออนิกซ์ พหลโยธิน,6390000,23000,44,,,1,1,,,13.791457,100.548475
,9600000,,90,,,2,2,,,13.720641,100.528207
วินด์ รัชโยธิน ,5900000,,55,,,1,1,,,13.828605,100.566228
ไอดีโอ สาทร-ตากสิน,4440000,,36,,,1,1,,,13.720185,100.502037
เดอะ ลอฟท์ อโศก,11600000,,49,,,1,1,,,13.746769,100.562783
,4670000,,28,,,1,1,,,13.755979,100.563553
ไลฟ์ อโศก,4230000,,29,,,1,1,,,13.750283,100.564773
เซอร์เคิล สุขุมวิท 11,9050000,45000,73,,,2,2,,,13.749738,100.556046
,2660000,,43,,,1,1,,,13.678308,100.606222
มารุ เอกมัย 2,9700000,,46,,,2,1,,,13.72461,100.584823
วิลล่า ลาซาล สุขุมวิท 105,4300000,,55,,,2,2,1,2,13.660006,100.611079
,3850000,18000,42,,,1,1,,,13.778809,100.574207
วิสซ์ดอม สเตชั่น รัชดา-ท่าพระ,2890000,,30,,,1,1,,,13.713712,100.478352
เดอะเพรสซิเดนท์ สุขุมวิท,5400000,30000,46,,,2,1,,,13.707177,100.585732
ไอดีโอ โมบิ อโศก,5520000,,28,,,,1,,,13.748426,100.565972
,16000000,,76,,,2,2,,,13.723379,100.561026
โนเบิล รีวอลฟ์ รัชดา 2,3850000,,25,,,1,1,,,13.763628,100.569442
,6000000,,46,,,1,1,,,13.778323,100.548591
,14700000,60000,101,,,2,3,,,13.723244,100.568565
ลิฟ แอท 49,7350000,35000,40,,,1,1,,,13.728634,100.575585
ลุมพินี พาร์ค ริเวอร์ไซด์ พระราม 3	,5940000,,65,,,2,2,,,13.679026,100.527594
แอสปาย รัชดา–วงศ์สว่าง,2490000,,26,,,1,1,,,13.830736,100.525306
,4200000,,47,,,1,1,,,13.715089,100.588014
,9260000,,58,,,2,2,,,13.795069,100.550558
ดิ เอส อโศก,8600000,,37,,,1,1,,,13.743168,100.561734
ไอดีโอ คิว ราชเทวี,5850000,25000,35,,,1,1,,,13.75282,100.533865
,3000000,13000,30,,,1,1,,,13.754985,100.575145
,3130000,,26,,,1,1,,,13.75598,100.568231
The Room สาทร,9050000,,50,,,1,1,,,13.722459,100.523549
,8150000,,35,,,1,1,,,13.722468,100.58455
,4260000,18000,40,,,1,1,,,13.804437,100.576231
ดิ แอดเดรส อโศก,12950000,,76,,,2,2,,,13.749514,100.561981
อินโทร พหลโยธิน-ประดิพัทธ์,4260000,,38,,,1,1,,,13.79205,100.539261
เดอะ คีย์ วุฒากาศ ,2850000,,31,,,1,1,,,13.713949,100.468175
,27700000,,101,,,2,2,,,13.730786,100.570792
เดอะ ลุมพินี 24,8730000,,38,,,1,1,,,13.722535,100.566242
,9500000,,65,,,2,2,,,13.717856,100.516763
แอสปาย สาทร-ท่าพระ,3020000,,31,,,1,1,,,13.715635,100.479962
ริทึ่ม พหล-อารีย์,6650000,25000,45,,,1,1,,,13.788905,100.545271
ริทึ่ม รัชดา,5320000,20000,35,,,1,1,,,13.798751,100.575843
คาซ่า คอนโด รัชดา-ราชพฤกษ์ ,3830000,,35,,,1,1,,,13.713727,100.476237
แอชตัน จุฬา-สีลม,7160000,,34,,,1,1,,,13.731096,100.531012
วอร์เตอร์มาร์ค เจ้าพระยา ริเวอร์,41240000,,206,,,3,3,,,13.710535,100.500849
แอสปาย สุขุมวิท 48,3620000,14000,33,,,1,1,,,13.71118,100.593972
ไอดีโอ โมบิ สุขุมวิท 66,5900000,,35,,,1,1,,,13.681605,100.609846
ไอดีโอ สาทร-ท่าพระ,3900000,,31,,,1,1,,,13.717258,100.482319
โนเบิล รีวอลฟ์ รัชดา,4280000,,26,,,1,1,,,13.763691,100.569463
เดอะ เพรสซิเดนท์ สาทร-ราชพฤกษ์ 2,2350000,,30,,,1,1,1,2,13.720945,100.458715
ไฮฟ์สุขุมวิท 65,4260000,,40,,,1,1,,,13.720666,100.5882
เดอะ พาโน ริเวอร์ฟรอนท์ ลิฟวิ่ง เซนเซชั่น,,,63,,,1,1,,,13.671397,100.541818
เดอะ ซี๊ด มิงเกิ้ล,4850000,20000,40,,,1,1,,,13.719886,100.539537
ชีวาทัย เรสซิเดนซ์ อโศก,5500000,,37,,,1,1,,,,
แอชตัน จุฬา-สีลม,5670000,,25,,,,1,,,13.731096,100.531012
เมโทร ปาร์ค สาทร,1500000,,43,,,1,1,1,2,13.708327,100.451058
,4210000,18000,46,,,1,1,,,13.734664,100.584833
โอกาส สุขุมวิท 105,1450000,,23,,,1,1,,1,13.662296,100.611912
ไอดีโอ คิว พญาไท,8520000,,50,,,1,1,,,13.755583,100.532839
,3590000,,25,,,1,1,,,13.695377,100.605772
ไนท์บริดจ์ ไพร์ม สาทร,6801000,,44,,,1,1,,,13.716801,100.533128
เดอะ เบส สุขุมวิท 77,6500000,30000,57,,,2,2,,,13.710945,100.602343
,5860000,25000,40,,,1,1,,,13.730928,100.58638
มาสเตอร์วิว เอ็กเซ็กคิวทีฟ เพลส,4700000,20000,86,,,2,2,,,13.712683,100.499609
โนเบิล รีวอลฟ์ รัชดา 2,3190000,,23,,,1,1,,,13.763628,100.569442
ทีล สาทร-ตากสิน,4470000,14000,35,,,1,1,,,13.720198,100.492713
เดอะ เพรสซิเด้นท์ สาทร-ราชพฤกษ์ 1,2560000,,30,,,1,1,,,13.72043,100.458841
,12800000,65000,120,,,2,2,,,13.720641,100.528207
วิช ซิกเนเจอร์ มิดทาวน์ สยาม,6330000,,34,,,1,1,,,13.751983,100.534693
เวนิโอ สุขุมวิท 10,6900000,22500,34,,,1,1,,,13.734894,100.556933
คาซ่า คอนโด อโศก-ดินแดง ,3190000,14000,30,,,1,1,,,13.760815,100.555733
เดอะ เพรสซิเด้นท์ สาทร-ราชพฤกษ์ 1,2510000,,30,,,1,1,,,13.72043,100.458841
ไอดีโอมิกซ์ สุขุมวิท 103 ,3490000,14000,31,,,1,1,,,13.680549,100.610491
,4106000,,32,,,1,1,1,1,,
ยู ดีไลท์ เรสซิเดนซ์ ริเวอร์ฟรอนท์ พระราม 3,5990000,,51,,,1,1,,,13.675303,100.532792
ลุมพินีเพลสพระราม 4-สาทร,5000000,21000,62,,,2,2,,,13.718437,100.549871
เดอะ ริเวอร์,10000000,,62,,,1,1,,,13.721558,100.510307
แอสปาย พระราม 4,2300000,,28,,,1,1,,,13.712061,100.584084
ริทึ่ม รัชดา,5320000,22000,45,,,1,1,,,13.798751,100.575843
เซ็นทริค ห้วยขวาง สเตชั่น,3900000,15000,27,,,1,1,,,13.780297,100.573986
,5670000,,34,,,1,1,,,13.734894,100.556933
,5980000,,35,,,1,1,,,13.755979,100.563553
เซนทริค อารี สเตชั่น,6190000,20000,34,,,1,1,1,2,13.778098,100.542387
รัชดาซิตี้ 18,2900000,,52,,,1,1,,,13.778454,100.575491
ลุมพินีเพลสพระราม 4-สาทร,4950000,,69,,,2,2,,,13.718437,100.549871
,28500000,,153,,,3,3,,,13.734985,100.546908
เดอะ เครสท์ พหลโยธิน 11,9500000,,83,,,2,2,,,13.788059,100.54267
แอสปาย พระราม9,4050000,,32,,,1,1,,,13.754805,100.566923
โนเบิลเฮ้าส์ พญาไท,7980000,,40,,,1,1,,,13.757169,100.5354
,11000000,,130,,,3,3,,,13.748194,100.558914
ปทุมวัน โอเอซิส เกษมสันต์ 3,25000000,90000,211,,,3,3,,,13.748261,100.527275
,9500000,48000,44,,,1,1,,,13.72974,100.581259
,3920000,,25,,,1,1,,,13.795858,100.550205
ไอดีโอ สุขุมวิท 93,3635000,,25,,,,1,,,13.698563,100.604805
ไลฟ์ อโศก-พระราม 9 ,3580000,,25,,,,1,,,13.754357,100.563878
ลุมพินี เพลส พระราม 4-กล้วยน้ำไท,2600000,,28,,,1,1,,,13.712813,100.582698
รีเจ้นท์ ออคิด สุขุมวิท 101,3300000,,35,,,1,1,,,13.691353,100.610298
,9500000,30000,54,,,1,1,,,13.730482,100.575624
ริทึ่ม รัชดา,4300000,17000,36,,,1,1,,,13.798751,100.575843
วิช ซิกเนเจอร์ มิดทาวน์ สยาม,5300000,,35,,,1,1,,,13.751983,100.534693
ลุมพินีเพลสพระราม 3 ริเวอร์วิว,3730000,15000,35,,,1,1,,,13.690432,100.505039
โอกะ เฮ้าส์ สุขุมวิท 36,3930000,,27,,,1,1,,,13.71581,100.574985
ริทึ่ม อโศก 2,4240000,,28,,,1,1,,,13.75391,100.564837
,2419000,,23,,,,1,,,13.772054,100.579979
ดิ แอดเดรส อโศก,7560000,27000,46,,,1,1,,,13.749514,100.561981
โฟคัส ออน ศาลาแดง,5070000,25000,35,,,1,1,,,13.72679,100.537175
แอชตัน จุฬา-สีลม,8080000,,35,,,1,1,,,13.731096,100.531012
,8200000,50000,85,,,2,2,,,13.739551,100.543452
The Room เจริญกรุง 30,13610000,,77,,,2,2,,,13.728981,100.515637
ริทึ่ม สุขุมวิท 36 – 38,6100000,,33,,,1,1,,,13.721609,100.576892
เซนส์ พหลโยธิน,3630000,,34,,,1,1,,,13.789005,100.552243
ไบร์ท วงเวียนใหญ่,4190000,,35,,,1,1,,,13.719524,100.490599
,5500000,20000,26,,,,1,,,13.722535,100.566242
เดอะ คีย์ สาทร-ราชพฤกษ์,2890000,12000,32,,,1,1,,,13.712998,100.465803
เดอะ นิช รัชดา-ห้วยขวาง,3200000,,40,,,1,1,,,13.768423,100.648183
คอนโดเลต ไอซ์ ราชเทวี,15000000,,91,,,2,2,,,13.753338,100.530981
ไอดีโอโมบิ วงศ์สว่าง-อินเตอร์เชนจ์,5750000,,48,,,2,1,,,13.818953,100.532139
วิทยุคอมเพล็กซ์,7240000,33000,101,,,2,2,,,13.748715,100.549255
ลุมพินีเพลส ปิ่นเกล้า,1990000,10000,28,,,1,1,1,1,13.774861,100.480775
เออร์บิเทีย ทองหล่อ,6820000,,35,,,1,1,,,13.722645,100.57687
ไลฟ์ อโศก,4400000,,29,,,1,1,,,13.750283,100.564773
,15960000,,79,,,2,2,,,13.743554,100.544958
,11000000,50000,75,,,2,2,,,13.73928,100.572688
เซเรเน่ เพลส สุขุมวิท 24,12770000,50000,90,,,2,2,,,13.726547,100.567412
เดอะ คีย์ สาทร-ราชพฤกษ์,2550000,,31,,,1,1,,,13.712998,100.465803
The Room เจริญกรุง 30,12770000,60000,54,,,1,1,,,13.728981,100.515637
วิสซ์ดอม อเวนิว รัชดา-ลาดพร้าว,20110000,,111,,,3,3,,,13.80522,100.574214
เดอะ ริเวอร์,26900000,,138,,,2,3,1,1,13.721825,100.508987
เดอะ ลอฟท์ เอกมัย,9700000,40000,51,,,1,1,,,13.718323,100.587363
โนเบิล รีวอลฟ์ รัชดา,4530000,18000,26,,,1,1,,,13.763691,100.569463
,4440000,,26,,,1,1,,,13.790398,100.545904
,4900000,,38,,,1,1,,,13.795069,100.550558
,7120000,,35,,,1,1,,,13.722468,100.58455
เดอะ เทมโป พหลโยธิน,4790000,18000,39,,,1,1,,,13.775977,100.544763
เซอร์เคิล สุขุมวิท 11,13920000,,94,,,2,2,,,13.749738,100.556046
เดอะ ไลน์ อโศก-รัชดา,4190000,,28,,,1,1,,,13.755979,100.563553
ศุภาลัย โอเรียนทัล เพลส,3560000,,40,,,1,1,,,13.719848,100.539891
นารา ไนน์,9800000,,66,,,2,2,,,13.71782,100.532711
ไอดีโอโมบิ วงศ์สว่าง-อินเตอร์เชนจ์,6200000,,48,,,1,1,,,13.818953,100.532139
,5240000,23000,58,,,2,1,,,13.804437,100.576231
เดอะ ริเวอร์,18500000,80000,132,,,2,2,,,13.721558,100.510307
,16564000,70000,164,,,3,3,,,13.732311,100.574379
,5750000,,34,,,1,1,,,13.790049,100.547449
ลุมพินี พาร์ค นวมินทร์-ศรีบูรพา ,1790000,,26,,8,1,1,,,13.793931,100.651936
,5570000,,35,,,1,1,,,13.795858,100.550205
โนเบิล รีมิกซ์,9300000,,58,,,1,1,,,13.724502,100.577252
,16750000,,72,,,2,2,,,13.719733,100.522404
,7725000,,47,,,1,1,,,13.795858,100.550205
แอ็บสแตร็กส์ สุขุมวิท 66/1,4000000,15000,46,,,1,1,,,13.679587,100.605677
เดอะ ฟายน์ แอท รีเวอร์,5310000,,80,,,2,2,,,13.717451,100.508914
ไลฟ์ สุขุมวิท 48,4220000,,40,,,1,1,,,13.711512,100.594775
ไนท์บริดจ์ ไพร์ม สาทร,5380000,,37,,,1,1,,,13.716801,100.533128
วายน์ สุขุมวิท,4900000,,42,,,1,1,,,13.712821,100.594265
,7460000,,35,,,1,1,,,13.722468,100.58455
ไลฟ์ สุขุมวิท 48,4740000,20000,33,,,1,1,,,13.711512,100.594775
เดอะ โมนูเมนต์ สนามเป้า,13210000,,47,,,1,1,,,13.76945,100.540555
ศุภาลัย คาซ่า ริวา,9050000,,92,,,2,2,,,13.69514,100.494631
เมโทร ปาร์ค สาทร,2060000,10000,47,,,1,1,,,13.709118,100.451345
ไลฟ์ อโศก-พระราม 9 ,4100000,,32,,,1,1,,,13.754357,100.563878
ริทึ่ม สาทร,5700000,25000,39,,,1,1,,,13.718825,100.532778
ศุภาลัย เวอเรนด้า พระราม 9,2352000,,,,19,1,1,,,13.755154,100.58306
,6250000,,62,,,2,1,,,13.804437,100.576231
เดอะ ไลน์ ราชเทวี,6490000,,28,,,,1,,,13.752446,100.533475
เดอะ ริเวอร์,13300000,,78,,,2,2,,,13.721558,100.510307
บีทนิค สุขุมวิท 32,12050000,,43,,,1,1,,,13.726547,100.575382
วอร์เตอร์มาร์ค เจ้าพระยา ริเวอร์,9900000,45000,99,,,2,2,,,13.710535,100.500849
วินน์ คอนโด ลาดพร้าว - โชคชัย 4,3370000,,38,,,2,1,1,2,13.798701,100.595805
ฟิวส์ สาทร - ตากสิน,9100000,,71,,,2,2,,,13.720432,100.496983
ศุภาลัย ริเวอร์ เพลส,2700000,,34,,,1,1,,,13.710744,100.502763
,16000000,,121,,,2,2,,,13.730626,100.573124
ไลฟ์ อโศก,4230000,,29,,,1,1,,,13.750283,100.564773
ฟิวส์ จันทน์-สาทร,6380000,,61,,,2,2,,,13.705683,100.530433
ไลฟ์ อโศก,8250000,,55,,,2,2,,,13.750283,100.564773
โนเบิล บี ไนน์ทีน,15450000,,59,,,2,2,,,13.74228,100.559167
วิสซ์ดอม อเวนิว รัชดา-ลาดพร้าว,8500000,,54,,,2,2,,,13.80522,100.574214
,13000000,50000,105,,,2,2,,,13.722625,100.538722
คาซ่า คอนโด รัชดา-ราชพฤกษ์ ,2580000,,27,,,1,1,,,13.713727,100.476237
วิสซ์ดอม สเตชั่น รัชดา-ท่าพระ,3070000,,28,,,,1,,,13.713712,100.478352
แอชตัน จุฬา-สีลม,6440000,,31,,,1,1,,,13.731096,100.531012
ไนท์บริดจ์ ไพร์ม สาทร,5300000,,37,,,1,1,,,13.716801,100.533128
แอชตัน จุฬา-สีลม,16880000,,63,,,2,2,,,13.731096,100.531012
แอสปาย พระราม 4,2590000,,28,,,1,1,,2,13.712061,100.584084
,3700000,,66,,,2,2,,,13.712272,100.607013
ไอดีโอ สุขุมวิท 93,4609000,,35,,,1,1,,,13.698563,100.604805
ลิฟ แอท ไฟว์,6241079,,47,,,1,1,,,13.743638,100.554559
โนเบิล รีโคล สุขุมวิท 19,7580000,,35,,,1,1,,,13.742184,100.559938
แอสปาย สุขุมวิท 48,3800000,20000,38,,,1,1,,,13.71118,100.593972
เดอะบางกอก ,13000000,60000,120,,,3,2,,,13.73117,100.527316
,2820000,,42,,,1,1,,,13.678308,100.606222
แอชตัน อโศก,9381000,,35,,,1,1,,,13.738898,100.5609
333 ริเวอร์ไซด์,15052000,,70,,,2,2,,,13.806523,100.51946
วัน สยาม คอนโด ,5860000,22000,45,,,1,1,,,13.749087,100.527547
เดอะ ไลน์ ราชเทวี,33950000,,105,,,3,3,,,13.752446,100.533475
เดอะ ไลน์ จตุจักร-หมอชิต,6150000,,,,,1,1,,,13.806244,100.556048
แชปเตอร์วัน อีโค รัชดา - ห้วยขวาง,150000,,23,,,1,1,1,1,13.77212,100.5799
ไอดีโอ สุขุมวิท 93,3460000,,26,,,,1,,,13.698563,100.604805
เออร์บาโน่ แอบโซลูท สาทร-ตากสิน,4300000,18000,38,,,1,1,,,13.721125,100.507202
เซอร์เคิล สุขุมวิท 31,11760000,,70,,,2,2,,,13.740206,100.566768
ไลฟ์ แอท รัชดา-ห้วยขวาง,7450000,,65,,,2,2,,,13.778809,100.574207
ไอดีโอ รัชดา-ห้วยขวาง,3670000,16000,35,,,1,1,,,13.778353,100.57407
,4740000,,61,,,2,2,,,13.726568,100.528252
,2450000,8500,30,,,22,1,1,2,,
,4100000,,28,,,1,1,,,,
แอสปาย สาทร-ท่าพระ,3120000,12000,31,,,1,1,,,13.715635,100.479962
ไอดีโอ ท่าพระ อินเตอร์เชนจ์,2890000,,28,,,1,1,,,13.728973,100.475815
,8100000,,64,,,,1,,,13.722625,100.538722
ไลฟ์ อโศก,4250000,,29,,,,1,,,13.750283,100.564773
,22000000,,71,,,2,2,,,13.719733,100.522404
แอชตัน สีลม,13659000,,48,,,1,1,,,13.726391,100.526828
เดอะ เนสท์ เพลินจิต,4550000,,37,,,1,1,,,13.74633,100.549386
วิสซ์ดอม อเวนิว รัชดา-ลาดพร้าว,5643600,,30,,,1,1,,,13.80522,100.574214
เออร์บาโน่ แอบโซลูท สาทร-ตากสิน,3750000,16000,30,,,,1,,,13.721125,100.507202
ศุภาลัย เอลีท สุรวงศ์,7270000,,60,,,1,1,,,13.730578,100.523288
,4134000,,38,,,1,1,,,13.788697,100.553204
,7130000,,96,,,2,2,,,13.735116,100.584944
รัชดาซิตี้ 18,2450000,,44,,,1,1,,,13.778454,100.575491
เดอะ ไลน์ อโศก-รัชดา,6250000,,35,,,1,1,,,13.755979,100.563553
,3710000,,33,,,1,1,,,13.701033,100.516013
,9350000,,59,,,2,2,,,13.795069,100.550558
เมโทร สกาย รัชดา,3400000,,44,,,1,1,,,13.784071,100.571346
ลิฟ แอท 49,8620000,,48,,,1,1,,,13.728634,100.575585
เดอะ ซิกเนเจอร์ บาย เออร์บาโน่,8940000,,48,,,2,1,,,13.792876,100.549181
ไอดีโอ ท่าพระ อินเตอร์เชนจ์,2851063,,28,,,1,1,,,13.728973,100.475815
เอลลิโอ เดล เรย์ สุขุมวิท 64,2200000,,24,,,1,1,1,1,13.684835,100.604447
วิสซ์ดอม สเตชั่น รัชดา-ท่าพระ,3530000,,30,,,1,1,,,13.713712,100.478352
เอ็ม จตุจักร,4350000,,28,,,1,1,,,13.797477,100.55176
เซ็นทริค รัชดา-สุทธิสาร,4580000,15000,40,,,1,1,,,13.789912,100.573599
เดอะมาสเตอร์เซ็นเธรี่ยม,20220000,70000,162,,,2,3,,,13.740881,100.561222
,4900000,,27,,,1,1,,,13.718089,100.58494
ไดมอนด์ รัชดา คอนโดมิเนียม,5000000,,50,,,2,2,,,13.774692,100.573953
ลิฟ แอท ไฟว์,11880000,,78,,,2,2,,,13.743638,100.554559
ควอทโทร บาย แสนสิริ,22750000,85000,90,,,2,2,,,13.727561,100.581708
เดอะทรี อินเตอร์เชนจ์,2670000,,30,,,1,1,,,13.805573,100.525556
เดอะ ดิโพลแมท สาทร,10830000,,45,,,1,1,,,13.719796,100.522059
คอนโดเลต ไอซ์ ราชเทวี,11500000,,85,,,3,3,,,13.753338,100.530981
ไซมิส สุรวงศ์,13520000,55000,81,,,3,2,,,13.729786,100.527884
ลิฟ แอท 49,8970000,,45,,,1,1,,,13.728634,100.575585
,4760000,,35,,,1,1,,,13.807705,100.57118
ริทึ่ม รางน้ำ,5780000,,28,,,1,1,,,13.761155,100.536971
ไอดีโอ โมบิ อโศก,10640000,,54,,,2,1,,,13.748426,100.565972
ไอดีโอ คิว ราชเทวี,7627000,36000,47,,,2,,,,13.75282,100.533865
แอสปาย พระราม9,,14000,39,,,1,1,,,13.754805,100.566923
,2500000,,40,,,1,1,1,1,,
เซอร์เคิล คอนโดมิเนียม,5860000,,44,,,1,1,,,13.749275,100.555941
,13820000,,50,,,1,1,,,13.738779,100.561802
ชีวาทัย ราชปรารภ,7450000,,72,,,2,2,,,13.76182,100.542531
,4260000,17000,35,,,1,1,,,13.707177,100.585732
เอลลิโอ คอนโด สุขุมวิท 64,2130000,,24,,,1,1,,,13.684062,100.603963
,15000000,60000,102,,,3,2,,,13.760067,100.569381
,42500000,150000,372,,,1,1,,,13.725661,100.56758
ดิแอดเดรสสยาม,13830000,45000,98,,,3,2,,,13.752146,100.534294
,5500000,17000,35,,,1,1,,,13.755821,100.566363
กรีเน่ คอนโด ดอนเมือง-สรงประภา,105000,,25,,,1,1,1,1,13.927464,100.584653
บ้านเจ้าพระยา,8200000,,77,,,2,1,,,13.732823,100.509755
,17030000,70000,75,,,2,2,,,13.72974,100.581259
เดอะ ไลน์ จตุจักร-หมอชิต,6430000,,35,,,1,1,,,13.806244,100.556048
,13760000,,70,,,2,2,,,13.722468,100.58455
ริทึ่ม สาทร,8745000,,55,,,1,1,,,13.717856,100.516763
โนเบิล รีไฟน์,10200000,40000,50,,,1,1,,,13.728365,100.568836
ไลฟ์ อโศก,4450000,,29,,,1,1,,,13.750283,100.564773
วิลล่า สาทร,4250000,,41,,,1,1,,,13.721234,100.504148
,6160000,,30,,,,1,,,13.722468,100.58455
,6798000,,48,,,1,1,,,13.729919,100.5075
,15000000,75000,90,,,1,1,,,13.723244,100.568565
อัพ เอกมัย,6170000,27000,42,,,1,1,,,13.739269,100.588721
วอร์เตอร์มาร์ค เจ้าพระยา ริเวอร์,14840000,,162,,,3,3,,,13.710535,100.500849
แอสปาย สาทร-ท่าพระ,2660000,,27,,,1,1,,,13.715635,100.479962
วิช ซิกเนเจอร์ มิดทาวน์ สยาม,5020000,,27,,,1,1,,,13.751983,100.534693
โนเบิล รีวอลฟ์ รัชดา 2,3710000,,25,,,1,1,,,13.763628,100.569442
เดอะ สเตจ เตาปูน-อินเตอร์เชนจ์,2380000,,22,,,,1,,,13.806258,100.526553
ลุมพินี พาร์ค ริเวอร์ไซด์ พระราม 3	,4470000,12000,52,,,2,2,,,13.679026,100.527594
ไอดีโอ คิว จุฬา-สามย่าน,6500000,18500,33,,,1,1,,,13.733349,100.527144
แอสปาย พระราม9,4050000,,33,,,1,1,,,13.754805,100.566923
,7880000,,49,,,1,1,,,13.721571,100.497397
,6150000,,30,,,1,1,,1,,
เดอะ ริเวอร์,27500000,110000,109,,,2,2,,,13.721558,100.510307
แอสปาย พระราม9,3990000,,39,,,1,1,,,13.754805,100.566923
คาซ่า คอนโด อโศก-ดินแดง ,2500000,,26,,,1,1,,,13.760815,100.555733
แอชตัน จุฬา-สีลม,5250000,,25,,,1,1,,,13.731096,100.531012
เอดจ์ สุขุมวิท 23,9080000,38000,43,,,1,1,,,13.736521,100.563365
,3490000,,22,,,,1,,,,
เซอร์เคิล คอนโดมิเนียม,5540000,,45,,,1,1,,,13.749275,100.555941
ซิตี้โฮม สุขุมวิท,2446000,,34,,,,1,,,13.681708,100.610365
ศุภาลัย พรีเมียร์ แอท ราชเทวี,11500000,,105,,,2,2,,,13.75487,100.526029
,8970000,,38,,,1,1,,,13.738779,100.561802
,11750000,,59,,,1,1,,,13.727726,100.575105
มาเอสโตร สุขุมวิท 39,7910000,49000,59,,,2,2,,,13.739918,100.57256
เอ สเปซ ไอดี อโศก-รัชดา,4950000,20000,33,,,1,1,,,13.756804,100.560239
แอสปาย สุขุมวิท 48,3750000,15500,38,,,1,1,,,13.71118,100.593972
ไลฟ์ อโศก-พระราม 9 ,4470000,,35,,,1,1,,,13.754357,100.563878
,4500000,35000,35,,,1,1,,,100.524614,13.716013
,6000000,,35,,,1,1,,,13.755979,100.563553
เซ็นทริค รัชดา-สุทธิสาร,3830000,,31,,,1,1,,,13.789912,100.573599
ไอดีโอเวิร์ฟ,7550000,28000,58,,,2,1,,,13.754496,100.54253
ชาโตว์ อินทาวน์ สุขุมวิท 64,2610000,10000,28,,,1,1,,,13.686015,100.606789
ไลฟ์ อโศก,4370000,,29,,,1,1,,,13.750283,100.564773
เดอะ โมนูเมนต์ สนามเป้า,11910000,,46,,,1,1,,,13.76945,100.540555
,9095000,30000,46,,,1,1,,,13.722747,100.52563
,4440000,,26,,,1,1,,,13.790398,100.545904
ดิ อิสสระ ลาดพร้าว,5360000,,52,,,1,1,,,13.80886,100.567982
ควอทโทร บาย แสนสิริ,35110000,,116,,,3,3,,,13.727561,100.581708
ไอดีโอ คิว จุฬา-สามย่าน,4700000,,23,,,,1,,,13.733349,100.527144
แอชตัน สีลม,12620000,,49,,,1,1,,,13.726391,100.526828
ชีวาทัย เรสซิเดนซ์ อโศก,5160000,,37,,,1,1,,,13.753899,100.564346
เลอ ลัก คอนโดมิเนียม,5860000,,45,,,1,1,,,13.714591,100.593232
ออนิกซ์ พหลโยธิน,5990000,,43,,,1,1,,,13.791457,100.548475
เดอะ ไลน์ จตุจักร-หมอชิต,6575000,,35,,,1,1,,,13.806244,100.556048
เซ็นต์หลุยส์แกรนด์เทอเรส,20110000,,136,,,3,3,,,13.719357,100.526687
ไดมอนด์ รัชดา คอนโดมิเนียม,3000000,16000,35,,,1,1,,,13.774692,100.573953
เดอะ ริเวอร์,26140000,,137,,,2,2,,,13.721558,100.510307
วิสซ์ดอม สเตชั่น รัชดา-ท่าพระ,3800000,,32,,,1,1,,,13.713712,100.478352
333 ริเวอร์ไซด์,13800000,,94,,,2,2,,,13.806523,100.51946
,4500000,,26,,,,1,,,13.795858,100.550205
แอสปาย พระราม 4,2580000,,28,,,1,1,,,13.712091,100.584143
,4880000,,35,,,1,1,,,13.695377,100.605772
ไอดีโอ สาทร-ตากสิน,4950000,,32,,,1,1,,,13.720185,100.502037
วินด์ รัชโยธิน ,7600000,,80,,,2,2,,,13.828605,100.566228
ไลฟ์ อโศก,4800000,,29,,,1,1,,,13.750283,100.564773
โนเบิล เพลินจิต,15000000,60000,48,,,1,1,,,13.743764,100.54861
,11380000,,72,,,2,2,,,13.795858,100.550205
,6800000,,35,,,1,1,,,13.722468,100.58455
คิว ชิดลม-เพชรบุรี,15755670,,82,,,1,1,,,13.749404,100.543869
โนเบิล รีวอลฟ์ รัชดา 2,3300000,,25,,,1,1,,,13.763628,100.569442
อีควิน๊อกซ์ พหล-วิภา,8500000,,63,,,2,2,,,13.809454,100.55895
,18500000,,105,,,2,2,,,13.743554,100.544958
,13300000,50000,80,,,2,2,,,13.71932,100.584445
ไอดีโอ คิว สยาม - ราชเทวี,7150000,30000,34,,,1,1,,,13.75301,100.533877
แอชตัน อโศก,10825000,,34,,,,1,,,13.738898,100.5609
โนเบิล รีวอลฟ์ รัชดา 2,3801000,,25,,,1,1,,,13.763628,100.569442
เมโทร สกาย รัชดา,2630000,,28,,,1,1,,,13.784071,100.571346
ซี เอกมัย,4050000,,32,,,1,1,,,13.740205,100.589785
,8841000,,40,,,1,1,,,13.722079,100.55337
เซ็นทริค สาทร-เซนต์หลุยส์,9100000,35000,59,,,2,2,,,13.718619,100.527063
บลอคส์ 77,3800000,,40,,,1,1,,,13.710381,100.601693
คาซ่า คอนโด อโศก-ดินแดง ,2450000,10000,26,,,1,1,,,13.760815,100.555733
แอสไปร์ สาทร-ราชพฤกษ์,2060000,,26,,,,1,,,13.716673,100.45842
ไนท์บริดจ์ ไพร์ม สาทร,3816000,,24,,,1,1,,,13.716801,100.533128
เดอะ ซี้ด เมมโมรี่ สยาม,6390000,22000,41,,,1,1,,,13.747857,100.528447
ไอดีโอ ท่าพระ อินเตอร์เชนจ์,4500000,,36,,,1,1,,,13.728973,100.475815
The Room สุขุมวิท 79,5400000,,59,,,2,1,,,13.707963,100.601566
,12770000,,110,,,4,2,,,13.718347,100.529399
แมกโนเลียส์ วอเตอร์ฟรอนท์ เรสซิเดนซ์ ณ ไอคอนสยาม,31500000,,103,,,2,2,,,13.727956,100.511167
ยู รัชโยธิน,2300000,,32,8,,1,1,1,2,13.834921,100.580873
,5060000,,43,,,1,1,,,13.750044,100.538614
เดอะ ซีรี่ส์ อุดมสุข 29,2649000,10000,35,,,1,1,,,13.679838,100.624173
,10500000,35000,56,,,2,2,,,13.760067,100.569381
เอลลิโอ เดล เรย์ สุขุมวิท 64,2970000,,34,,,1,1,,,13.684212,100.604489
,3990000,,27,,,,1,,,13.754357,100.563878
แอชตัน จุฬา-สีลม,7520000,,35,,,1,1,,,13.731096,100.531012
ไลฟ์ รัชดาภิเษก,6600000,,55,,,2,2,,,13.790669,100.574196
The Room สาทร-ตากสิน,4300000,22000,47,,,1,1,,,13.717746,100.483477
เดอะ พาร์คแลนด์ แกรนด์ อโศก-เพชรบุรี,3600000,,35,,,1,1,,,13.748641,100.567847
