CondoName,SalePrice,RentPrice,RoomArea,UnitNbr,FloorNbr,nbrBed,nbrBath,nbrPark,nbrAirCon,Latitude,Longitude
เดอะ ริเวอร์,18740000,,132,,,2,2,,,13.721558,100.510307
คีนน์ บาย แสนสิริ,6900000,30000,35,,,1,1,,,13.724993,100.576933
,11530000,,43,,,1,1,,,13.719733,100.522404
วิลล่า สาทร,5400000,20000,55,,,1,1,,,13.721234,100.504148
เอ็ม จตุจักร,7377000,,53,,,2,1,,,13.797477,100.55176
,4330000,,32,,,1,1,,,13.754357,100.563878
คิว ชิดลม-เพชรบุรี,11778000,,63,,,2,2,,,13.749404,100.543869
ศาลาแดง วัน,15540000,,49,,,1,1,,,13.726661,100.541131
ดิ เอ็มไพร์ เพลส สาทร,46000000,,343,,,1,4,,,13.719323,100.531126
,6000000,,34,,,1,1,,,13.743472,100.554339
ควินน์ คอนโด รัชดา17,6710000,,46,,,1,1,,,13.786325,100.573246
แอสปาย รัชดา–วงศ์สว่าง,2317500,,26,,,1,1,,,13.830736,100.525306
,15990000,,76,,,2,2,,3,,
โนเบิล รีโว สีลม,5450000,20000,34,,,1,1,,,13.719509,100.519492
แอชตัน สีลม,20000000,,72,,,2,2,,,13.726391,100.526828
แอชตัน เรสซิเด้นซ์ 41,17500000,,77,,,2,2,,,13.732784,100.572857
,3225000,,37,,,1,1,,,13.75633,100.571409
ไอดีโอ สาทร-ท่าพระ,2446808,,22,,,,1,,,13.717258,100.482319
เดอะคิวบ์ ลอฟท์ นวลจันทร์,90000,,28,,,1,1,1,1,13.830252,100.637942
โนเบิล รีมิกซ์,9300000,40000,61,,,1,1,,,13.724502,100.577252
,3500000,,30,,,1,1,,,13.778809,100.574207
ไลฟ์ อโศก,4330000,,35,,,1,1,,,13.750283,100.564773
เดอะ พาร์คแลนด์ เพชรเกษม – ท่าพระ,2690000,,32,,,1,1,,,13.728395,100.477949
ศุภาลัย ริเวอร์ รีสอร์ท,6450000,,54,,,1,1,,,,
,9500000,,56,,,1,1,,,13.722747,100.52563
ไอดีโอ คิว สยาม - ราชเทวี,6800000,,34,,,1,1,,,13.75301,100.533877
333 ริเวอร์ไซด์,6600000,,46,,,1,1,,,13.806523,100.51946
ไอดีโอ สุขุมวิท 93,4970000,,34,,,1,1,,,13.698563,100.604805
ไอดีโอ โมบิ สุขุมวิท อีสท์เกต,2350000,,22,,,1,1,1,1,13.665637,100.603751
,4920000,,40,,,1,1,,,13.710381,100.601693
,80000,,24,,,1,1,1,2,,
ไอวี่ ทองหล่อ,7234000,,35,,,1,1,,,13.737175,100.583555
เดอะ เบส พาร์คอีสต์-สุขุมวิท 77,3620000,14000,31,,,1,1,,,13.713486,100.600417
มายรีสอร์ท บางกอก,9790000,,82,,,2,2,,,13.748381,100.566619
ไอดีโอ สุขุมวิท 93,3520000,,26,,,,1,,,13.698563,100.604805
,6490000,,36,,,1,1,,,13.75598,100.568231
ริทึ่ม รัชดา,4300000,16000,35,,,1,1,,,13.798751,100.575843
เดอะ สเตชั่น สาทร-บางรัก,3410000,,39,,,,1,,,13.713076,100.514433
,,28000,42,,,2,1,,,13.754267,100.564468
เดอะทรี บางโพ สเตชั่น,2500000,9000,32,,,1,1,1,1,13.808284,100.521802
แชปเตอร์วัน มิดทาวน์ ลาดพร้าว 24,3865000,,30,,,1,1,,,13.806471,100.572747
มาเอสโตร 03 รัชดา - พระราม 9,4260000,,29,,,1,1,,,13.76283,100.564577
ไอดีโอ คิว พญาไท,12240000,,62,,,1,1,,,13.755583,100.532839
ฮิว สุขุมวิท,3600000,25000,31,,,1,1,,,13.689117,100.60886
ไอดีโอ คิว สยาม - ราชเทวี,6470000,,34,,,1,1,,,13.75301,100.533877
ไอดีโอเวิร์ฟ,7660000,,59,,,1,1,,,13.754496,100.54253
เดอะ ไลน์ สุขุมวิท 101,4200000,,32,,,1,1,,,13.692036,100.607939
แมกโนเลียส์ ราชดำริ บูเลอวาร์ด,13570000,,57,,,1,1,,,13.742584,100.540276
แอ็บสแตร็กส์ พหลโยธิน พาร์ค,4042000,16000,38,,,1,1,,,13.818025,100.564932
,6300000,,31,,,1,1,,,13.722468,100.58455
ดิ แอดเดรส อโศก,7000000,,45,,,1,1,,,13.749514,100.561981
ไอดีโอ คิว จุฬา-สามย่าน,5980000,,34,,,1,1,,,13.733349,100.527144
,5530000,,37,,,1,1,,,13.714678,100.604522
ไอดีโอ สุขุมวิท 93,3560000,,26,,,1,1,,,13.698563,100.604805
,5750000,,34,,,1,1,,,13.790049,100.547449
ไอดีโอ สาทร-ท่าพระ,2978000,,23,,,,1,,,13.717258,100.482319
แอชตัน จุฬา-สีลม,7190000,,33,,,1,1,,,13.731096,100.531012
ริทึ่ม สุขุมวิท,5540000,22000,35,,,1,1,,,13.706522,100.59934
,8043000,,87,,,1,1,,,13.726568,100.528252
,13000000,55000,73,,,1,1,,,13.723244,100.568565
,6780000,,30,,,1,1,,,13.722468,100.58455
,8400000,29000,65,,,1,1,,,13.719323,100.531126
ไอวี่ รัชดา,4150000,20000,44,,,1,1,,,13.791,100.575942
,4300000,20000,32,,,1,1,,,13.790669,100.574196
,5260000,,35,,,1,1,,,,
,8500000,35000,52,,,1,1,,,13.722573,100.580227
เดอะ เพรสซิเดนท์ สาทร-ราชพฤกษ์ 2,2490000,12000,30,,,1,1,,,13.719384,100.458654
ไอดีโอ สาทร-ท่าพระ,2978723,10000,22,,,,1,,,13.717258,100.482319
,6150000,,30,,,1,1,1,2,,
ริทึ่ม อโศก 2,4520000,,28,,,1,1,,,13.75391,100.564837
ไอดีโอ โมบิ บางซื่อ แกรนด์ อินเตอร์เช้นจ์,3340000,,27,,,1,1,,,13.805893,100.533039
โนเบิล บี ไนน์ทีน,7930000,,35,,,1,1,,,13.74228,100.559167
ดิ แอดเดรส อโศก,7450000,,45,,,1,1,,,13.749514,100.561981
,5750000,25000,62,,,2,1,,,13.804437,100.576231
บ้านเพลินจิต,7240000,,63,,,1,1,,,13.736983,100.550573
ลุมพินี เพลส รัชโยธิน,3200000,,35,,,1,1,,,13.830208,100.570346
เดอะมิวส์ สุขุมวิท 64/1,10220000,38000,150,,,3,3,,,13.685125,100.607205
เอ สเปซ ไอดี อโศก-รัชดา,5000000,16000,33,,,1,1,,,13.75685,100.560255
โนเบิล รีโคล สุขุมวิท 19,7200000,,36,,,1,1,,,13.742184,100.559938
ฟิวส์ จันทน์-สาทร,3150000,14000,32,,,1,1,,,13.705683,100.530433
นราทร เพลส,22130000,,231,,,3,3,,,13.720113,100.532124
,9860000,40000,40,,,1,1,,,13.725512,100.566204
ไลฟ์ สุขุมวิท 48,3000000,,30,,,1,1,,,13.711512,100.594775
ริทึ่ม อโศก 2,5400000,,29,,,1,1,,,13.75391,100.564837
โนเบิล รีโคล สุขุมวิท 19,12125000,,62,,,2,2,,,13.742184,100.559938
เดอะ คีย์ สาทร-เจริญราษฎร์,6200000,25000,55,,,2,2,,,13.701033,100.516013
ริทึ่ม รางน้ำ,6890000,,35,,,1,1,,,13.761155,100.536971
,5180000,,28,,,,1,,,13.831586,100.570987
เดอะ ลิงค์ แอดว๊านซ์ สุขุมวิท 50 (Back up),2480000,,32,,,1,1,,,13.705787,100.598306
เดอะ ลุมพินี 24,25500000,,158,,,3,2,,,13.722535,100.566242
,9510000,,71,,,2,2,,,13.723249,100.52205
ไอดีโอ คิว จุฬา-สามย่าน,6060000,,34,,,1,1,,,13.733349,100.527144
แอชตัน จุฬา-สีลม,7630000,,35,,,1,1,,,13.731096,100.531012
โนเบิลเฮ้าส์ พญาไท,5150000,,45,,,1,1,,,13.759012,100.535288
คอนโดเลต ไอซ์ ราชเทวี,5900000,,31,,,1,1,,,13.753338,100.530981
,2480000,13000,40,,,1,1,,,13.678308,100.606222
,8300000,,38,,,1,1,,,13.722468,100.58455
แอชตัน อโศก,7600000,,31,,,1,1,,,13.738898,100.5609
ไอดีโอ สุขุมวิท 93,3210000,,25,,,1,1,,,13.698563,100.604805
,4500000,,29,,,1,1,,,13.722909,100.576852
สตาร์วิว พระราม 3,9750000,,84,,,2,2,,,13.687433,100.517984
The Room สุขุมวิท 64,3190000,,42,,,1,1,,,13.68622,100.604799
ไฮด์ สุขุมวิท,13700000,,73,,,1,1,,,13.740361,100.557288
วิสซ์ดอม สเตชั่น รัชดา-ท่าพระ,3150000,,26,,,1,1,,,13.713712,100.478352
ไลฟ์ อโศก-พระราม 9 ,4110000,,28,,,1,1,,,13.754357,100.563878
แอสปาย สุขุมวิท 48,3200000,,27,,,1,1,,,13.71118,100.593972
,8400000,29000,65,,,1,1,,,13.719323,100.531126
ไลฟ์ แอท สาทร 10,9570000,,65,,,2,2,,,13.7226,100.527373
ไอดีโอ โมบิ พระราม 9,4600000,,30,,,1,1,,,13.755643,100.565972
ไอดีโอ สาทร-ท่าพระ,2350000,12000,21,,,,1,,,13.717258,100.482319
ไฮด์ สุขุมวิท,22000000,,104,,,3,3,,,13.740361,100.557288
ไนท์บริดจ์ ไพร์ม สาทร,6706000,,44,,,1,1,,,13.716801,100.533128
เดอะเพรสซิเดนท์ สุขุมวิท,4380000,,34,,,1,1,,,13.707177,100.585732
ริทึ่ม สุขุมวิท 44/1,7520000,,48,,,1,1,,,13.715212,100.590594
ไลฟ์ อโศก,4532000,,29,,,1,1,,,13.750283,100.564773
,20220000,45000,190,,,3,3,,,13.736166,100.557203
วิลล่า สาทร,5500000,25000,57,,,1,1,,,13.721234,100.504148
,4010000,,26,,,1,1,,,13.75598,100.568231
ไอดีโอ คิว ราชเทวี,9800000,,51,,,2,1,,,13.75282,100.533865
The Room สาทร-ตากสิน,9790000,,77,,,2,2,,,13.717746,100.483477
ไอดีโอบลูโคฟ สุขุมวิท ,4460000,14000,35,,,1,1,,,13.678554,100.608607
,3940000,16000,40,,,1,1,,,13.754985,100.575145
ไลฟ์ อโศก-พระราม 9 ,3790000,,28,,,,1,,,13.754357,100.563878
โนเบิล รีวอลฟ์ รัชดา,3700000,,23,,,1,1,,,13.763691,100.569463
วิลล่า ราชเทวี,11550000,,70,,,1,1,,,13.754345,100.532544
แอสปาย สาทร-ตากสิน (บริค โซน),2350000,,27,,,1,1,,,13.712012,100.463402
,8700000,40000,58,,,1,1,,,13.735899,100.548754
ไอดีโอ โมบิ บางซื่อ แกรนด์ อินเตอร์เช้นจ์,3910000,,31,,,1,1,,,13.805893,100.533039
,5530000,,45,,,1,1,,,13.788905,100.545271
,5000000,,32,,,1,1,,,13.780297,100.573986
แอชตัน อโศก,8340000,,34,,,1,1,,,13.738898,100.5609
ไลฟ์ อโศก,4890000,,35,,,1,1,,,13.750283,100.564773
แอสปาย พระราม9,4500000,,39,,,1,1,,,13.754805,100.566923
,7100000,,82,,,2,2,,,13.7023,100.542247
,20750000,,300,,,3,3,,,13.78375,100.54178
ไอดีโอ คิว พญาไท,7980000,22000,40,,,1,1,,,13.755583,100.532839
เดอะ ไลน์ จตุจักร-หมอชิต,11678000,,63,,,2,2,,,13.806244,100.556048
,4300000,20000,35,,,1,1,,,13.788905,100.545271
แอสปาย รัชดา–วงศ์สว่าง,2200000,,26,,,1,1,,,13.830736,100.525306
เดอะ สตาร์ เอสเตท แอท นราธิวาส,6860000,25000,73,,,1,1,,,13.696536,100.544445
โอกะ เฮ้าส์ สุขุมวิท 36,6710000,,49,,,2,2,,,13.71581,100.574985
,4790000,,29,,,1,1,,,13.750283,100.564773
ทีล สาทร-ตากสิน,4470000,14000,35,,,1,1,,,13.720198,100.492713
เอดจ์ สุขุมวิท 23,7200000,,33,,,1,1,,,13.736521,100.563365
เบล อเวนิว พระราม 9,8410000,,48,,,1,1,,,13.760067,100.569381
มิราจ สุขุมวิท 27,4400000,27500,35,,,1,1,,,13.735297,100.564494
,4450000,,29,,,1,1,,,13.79696,100.569606
,4750000,,65,,,2,2,,,13.711298,100.479447
คิวเฮ้าส์ คอนโด สาทร ,6070000,20000,46,,,1,1,,,13.72129,100.501253
เดอะ เบส สุขุมวิท 77,5860000,,58,,,2,2,,,13.710945,100.602343
แม่น้ำ เรสซิเดนท์,11000000,,48,,,1,1,,,13.705249,100.506916
วิสซ์ดอม สเตชั่น รัชดา-ท่าพระ,3450000,,27,,,1,1,,,13.713712,100.478352
ศุภาลัย ริเวอร์ เพลส,2770000,,35,,,1,1,,,13.710744,100.502763
,4260000,18000,35,,,1,1,,,13.725077,100.568533
ลุมพินี เพลส วอเตอร์คลิฟ,4950000,18000,77,,,3,2,,,13.700296,100.538
แอชตัน จุฬา-สีลม,7350000,,33,,,1,1,,,13.731096,100.531012
,5530000,,44,,,1,1,,,13.778323,100.548591
แอสปาย สาทร-ตากสิน ทิมเบอร์ โซน,5050000,,46,,,2,1,,,13.715635,100.479962
,4004000,,35,,,1,1,,,13.712821,100.594265
โมริ เฮาส์,9000000,38000,69,,,2,2,,,13.715009,100.602331
อีควิน๊อกซ์ พหล-วิภา,5100000,23000,40,,,1,1,,,13.809454,100.55895
,6100000,,34,,,1,1,,,13.751983,100.534693
,3510000,,23,,,,,,,,
เดอะ ซี๊ด มิงเกิ้ล,4290000,22000,40,,,1,1,,,13.719886,100.539537
มาเอสโตร 07 อนุสาวรีย์,4220000,,27,,,1,1,,,13.755287,100.530902
,12780000,,62,,,1,1,,,13.725414,100.53824
ริทึ่ม รัชดา-ห้วยขวาง,5000000,,36,,,1,1,,,13.77788,100.573958
ไลฟ์ สุขุมวิท 48,5660000,,49,,,1,1,,,13.711512,100.594775
,3300000,,30,,,1,1,,,13.772054,100.579979
,8000000,,40,,,1,1,,,13.722079,100.55337
,11000000,,100,,,3,2,,,13.75623,100.532821
ลุมพินี พาร์ค ริเวอร์ไซด์ พระราม 3	,2720000,,28,,,1,1,,,13.679026,100.527594
ดิ แอดเดรส อโศก,6120000,27000,36,,,1,1,,,13.749514,100.561981
ฮาร์โมนีลิฟวิ่ง,8634000,,95,,,3,2,,,13.787424,100.546179
โนเบิล รีวอลฟ์ รัชดา,3814000,,26,,,,1,,,13.763691,100.569463
ไอดีโอโมบิ วงศ์สว่าง-อินเตอร์เชนจ์,3770000,,30,,,1,1,,,13.818953,100.532139
ชีวาทัย เรสซิเดนซ์ อโศก,5310000,,28,,,1,1,,,13.753899,100.564346
แชปเตอร์วัน มิดทาวน์ ลาดพร้าว 24,3130000,,24,,,1,1,,,13.806471,100.572747
ไอดีโอ โมบิ สุขุมวิท,3730000,,22,,,1,1,,,13.704024,100.602008
ไลฟ์ รัชดาภิเษก,5449000,22000,46,,,2,1,,,13.790669,100.574196
แอสปาย พระราม 4,4870000,25000,46,,,2,1,,,13.712091,100.584143
ศุภาลัยไลท์ สาทร-เจริญราษฎร์,5200000,,49,,,1,1,,,13.701721,100.516619
คอนโด ยู ดีไลท์ แอท อ่อนนุช สเตชั่น,2530000,,30,,,1,1,,,13.711158,100.603783
เทลลา ทองหล่อ,41730000,,111,,,2,2,,,13.733247,100.582097
ไลฟ์ สุขุมวิท 48,5800000,,49,,,2,2,,,13.711512,100.594775
ควินน์ คอนโด รัชดา17,5900000,,44,,,1,1,,,13.786325,100.573246
วินด์ รัชโยธิน ,5537000,,53,,,1,1,,,13.828605,100.566228
เดอะ แบงค็อค สาทร,11250000,,62,,,1,1,,,13.71916,100.52069
ไอดีโอ สุขุมวิท 93,3870000,,31,,,1,1,,,13.698563,100.604805
คาซ่า คอนโด อโศก-ดินแดง ,2980000,,30,,,1,1,,,13.760815,100.555733
333 ริเวอร์ไซด์,6500000,,46,,,1,1,,,13.806523,100.51946
คิวเฮ้าส์คอนโด สุขุมวิท 79,7300000,35000,44,,,2,1,,,13.707504,100.600429
วิสซ์ดอม คอนเนค สุขุมวิท,4200000,,30,,,1,1,,,13.685642,100.610619
ไลฟ์ อโศก,4750000,,35,,,1,1,,,13.750283,100.564773
,5860000,18000,38,,,1,1,,,13.795069,100.550558
เดอะ บางกอก นราธิวาสราชนครินทร์,4200000,,56,,,1,1,1,2,13.709042,100.53302
แอชตัน จุฬา-สีลม,5360000,,25,,,1,1,,,13.731096,100.531012
มอนเทอเรย์ เพลส,3520000,,56,,,1,1,,,13.723782,100.562029
,11710000,,200,,,3,3,,,13.742923,100.572249
,7650000,,35,,,1,1,,,13.761155,100.536971
,4380000,,27,,,1,1,,,13.755287,100.530902
ไซมิส สุรวงศ์,12490000,,81,,,3,2,1,1,13.729869,100.527877
ไฮด์ สุขุมวิท,9580000,,46,,,1,1,,,13.740361,100.557288
เอลลิโอ เดล เรย์ สุขุมวิท 64,3200000,,34,,,1,1,,,13.684212,100.604489
แอสปาย พระราม9,5860000,18000,39,,,1,1,,,13.754805,100.566923
บ้านกลางกรุง สยาม-ปทุมวัน,7450000,25000,48,,,1,1,,,13.751836,100.531988
ไซมิส ราชครู,4630000,,32,,,1,1,,,13.775756,100.543072
เดอะทรี อินเตอร์เชนจ์,2800000,,35,,,1,1,,,13.805573,100.525556
เดอะ เมท,34650000,120000,198,,,,3,,,13.72203,100.534139
เดอะ ไลน์ ราชเทวี,8810000,,32,,,1,1,,,13.752446,100.533475
ไอดีโอ โมบิ สาทร,5110000,,43,,,2,1,,,13.721271,100.500588
,3825000,,32,,,1,1,,,13.754357,100.563878
เซนส์ พหลโยธิน,3630000,,34,,,1,1,,,13.789005,100.552243
ดิ อิสสระ ลาดพร้าว,5890000,25000,50,,,1,1,,,13.80886,100.567982
ริทึ่ม รัชดา-ห้วยขวาง,5800000,,46,,,1,1,,,13.77788,100.573958
,10890000,,66,,,2,2,,,13.722909,100.576852
คาซ่า คอนโด รัชดา-ราชพฤกษ์ ,2660000,12000,27,,,1,1,,,13.713727,100.476237
ริทึ่ม อโศก,3050000,,22,,,1,1,,,13.754267,100.564468
,20000000,,61,,,1,1,,,13.726193,100.569733
วิสซ์ดอม คอนเนค สุขุมวิท,4250000,,30,,,1,1,,,13.685642,100.610619
,8720000,,47,,,1,1,,,13.739801,100.551763
,9350000,,59,,,2,2,,,13.795069,100.550558
,5650000,,36,,,1,1,,,13.75598,100.568231
เอ็ม จตุจักร,3811000,,28,,,1,1,,,13.797477,100.55176
,3150000,,26,,,1,1,,,13.713486,100.600417
ลิฟ แอท ไฟว์,5320000,,38,,,1,1,,,13.743638,100.554559
ศุภาลัย ปาร์ค เอกมัย-ทองหล่อ,4200000,,68,,,2,1,,,13.742941,100.58898
ทรูทองหล่อ,7880000,,66,,,2,2,,,13.744202,100.58534
ไลฟ์ อโศก,4000000,,29,,,1,1,,,13.750283,100.564773
นิช ไพรด์ ทองหล่อ-เพชรบุรี,3660000,,35,,,1,1,,,13.744899,100.583468
ไอวี แอมพิโอ,14500000,45000,76,,,2,2,,,13.762857,100.568267
ไอดีโอ สุขุมวิท 93,3800000,,31,,,1,1,,,13.698563,100.604805
เดอะ ไลท์เฮ้าส์ สาทร-เจริญนคร,5540000,,49,,,1,1,,,13.7224,100.508352
วิสซ์ดอม คอนเนค สุขุมวิท,4120000,,29,,,1,1,,,13.685642,100.610619
ฟิวส์ มิติ สุทธิสาร-รัชดา,3610000,,31,,,1,1,,,13.789345,100.563723
ไฮด์ สุขุมวิท,24470000,80000,111,,,2,2,,,13.740361,100.557288
ศุภาลัยไลท์ สาทร-เจริญราษฎร์,5200000,,49,,,1,1,,,13.701721,100.516619
,5890000,,48,,,1,1,,,13.729919,100.5075
ควินน์ คอนโด รัชดา17,4900000,22000,37,,,1,1,,,13.786325,100.573246
แอชตัน อโศก,9440000,,34,,,1,1,,,13.738898,100.5609
,7535000,25000,63,,,2,2,,,,
,16564000,70000,164,,,3,3,,,13.732311,100.574379
เมโทร ปาร์ค สาทร,3200000,13000,56,,,2,1,,,13.709118,100.451345
,8170000,,45,,,1,1,,,13.739801,100.551763
,4640000,,26,,,1,1,,,13.75598,100.568231
The Room สุขุมวิท 79,5110000,24000,58,,,2,1,,,13.707963,100.601566
ไลฟ์ อโศก-พระราม 9 ,3580000,,25,,,,1,,,13.754357,100.563878
,5770000,18000,36,,,1,1,,,13.70615,100.601615
,3000000,,30,,,1,1,,,13.778809,100.574207
ดี คอนโด รามคำแหง,1900000,,30,,,1,1,1,1,13.74972,100.607577
ไอดีโอ สาทร-ท่าพระ,2446808,,22,,,1,1,,,13.717258,100.482319
,5290000,,30,,,1,1,,,13.740205,100.589785
ลุมพินี เพลส พระราม 9 - รัชดา,3300000,,37,,,1,1,,,13.75633,100.571409
ไอดีโอ วุฒากาศ,2560000,,21,,,1,1,,,13.714664,100.467627
แอชตัน จุฬา-สีลม,5670000,,25,,,,1,,,13.731096,100.531012
,6390000,25000,31,,,1,1,,,13.748244,100.562727
เมโทร สกาย บางซื่อ - ประชาชื่น,3430000,,36,,,1,1,,,13.822357,100.536969
,4900000,18000,32,,,1,1,,,13.715212,100.590594
ศุภาลัย เอลีท แอท พญาไท,12000000,,94,,,2,2,,,13.756987,100.539217
อกัสตัน สุขุมวิท 22,,,53,,,1,1,,,13.725069,100.564216
สิริ แอท สุขุมวิท,8500000,35000,52,,,1,1,,,13.722573,100.580227
,10540000,,79,,,2,2,,,13.745673,100.549646
,12525000,,71,,,2,2,,,13.723249,100.52205
ลุมพินีวิลล์ รามอินทรา-หลักสี่,1400000,,28,,,1,1,1,2,13.871066,100.602693
เบล อเวนิว พระราม 9,16443000,60000,96,,,2,2,,,13.760067,100.569381
,9500000,,46,,,1,1,,,13.740361,100.557288
ไอดีโอ คิว จุฬา-สามย่าน,5180000,,34,,,1,1,,,13.733349,100.527144
เดอะ ลุมพินี 24,9390000,,55,,,2,2,,,13.722535,100.566242
,6920000,23000,50,,,1,1,,,13.735139,100.540489
แอสปาย สาทร-ท่าพระ,3050000,,31,,,1,1,,,13.715635,100.479962
เดอะ ไลน์ อโศก-รัชดา,6940000,,35,,,1,1,,,13.755979,100.563553
วิสซ์ดอม คอนเนค สุขุมวิท,11000000,,82,,,3,2,,,13.685642,100.610619
ไซมิส สุรวงศ์,6500000,,46,,,1,1,,,13.729786,100.527884
,8200000,50000,85,,,2,2,,,13.739551,100.543452
เดอะ เซนต์ เรสิเดนเซส ,4560000,,31,,,1,1,,,,
โนเบิล เพลินจิต,25000000,80000,76,,,2,2,,,13.743764,100.54861
,7654000,,58,,,2,2,,,13.754357,100.563878
พาร์ค 24 เฟส 1,8250000,,29,,,1,1,,,13.725512,100.566204
,6390000,,31,,,,1,,,13.722468,100.58455
,3610000,,26,,,1,1,,,13.75598,100.568231
ไอดีโอ สาทร-ท่าพระ,2560000,,22,,,,1,,,13.717258,100.482319
แอสปาย สุขุมวิท 48,3800000,20000,38,,,1,1,,,13.71118,100.593972
เดอะ รูม สาทร-เซนต์หลุยส์,4630000,,35,,,1,1,,,13.707455,100.526693
,2500000,,22,,,,1,,,13.717258,100.482319
แอชตัน จุฬา-สีลม,6800000,,33,,,1,1,,,13.731096,100.531012
,5390000,,28,,,,1,,,13.761155,100.536971
ยูดีไลท์ 3 ประชาชื่น-บางซื่อ,3623000,,49,,,2,1,,,13.825056,100.537588
แอชตัน อโศก,8970000,,34,,,1,1,,,13.738898,100.5609
ไดมอนด์ รัชดา คอนโดมิเนียม,6600000,30000,60,,,2,2,,,13.774692,100.573953
ไอดีโอ สาทร-ท่าพระ,2393617,10000,22,,,,1,,,13.717258,100.482319
ไอดีโอ โมบิ อโศก,6730000,,34,,,1,1,,,13.748426,100.565972
ไลฟ์ แอท พหล-อารีย์,3090000,,30,,,1,1,,,13.796934,100.552759
ไพน์ บาย แสนสิริ,10788000,27000,45,,,1,1,,,13.751878,100.531214
The Room สาทร-ตากสิน,9000000,35000,78,,,2,2,,,13.717746,100.483477
ดิ แอดเดรส สาทร,10640000,32000,56,,,1,1,,,13.722747,100.52563
วอร์เตอร์มาร์ค เจ้าพระยา ริเวอร์,24470000,,240,,,2,2,,,13.710535,100.500849
ริทึ่ม อโศก,3850000,,22,,,,1,,,13.754267,100.564468
ไอดีโอ รัชดา-ห้วยขวาง,3000000,,26,,,1,1,,,13.778353,100.57407
,5310000,,46,,,1,1,,,13.798751,100.575843
แอชตัน จุฬา-สีลม,7520000,,35,,,1,1,,,13.731096,100.531012
เดอะ ไลน์ สุขุมวิท 101,6600000,,42,,,1,1,,,13.692036,100.607939
ไอดีโอ คิว สยาม - ราชเทวี,6890000,,34,,,1,1,,,13.75301,100.533877
,7170000,,35,,,1,1,,,,
แบงค์คอก ฮอไรซอน รัชดา-ท่าพระ,2930000,,32,,,1,1,,,13.708066,100.480649
คิว ชิดลม-เพชรบุรี,7130000,,35,,,1,1,,,13.749404,100.543869
อินโทร พหลโยธิน-ประดิพัทธ์,4635000,,38,,,1,1,,,13.79205,100.539261
,2820000,,30,,,1,1,,,13.753416,100.576341
ดิ แอดเดรส สาทร,9580000,37000,56,,,1,1,,,13.722747,100.52563
มาเอสโตร 07 อนุสาวรีย์,4360000,,27,,,1,1,,,13.755287,100.530902
เดอะ ลุมพินี 24,8730000,,38,,,1,1,,,13.722535,100.566242
,6250000,,59,,,2,2,,,13.744899,100.583468
คาซ่า คอนโด อโศก-ดินแดง ,2490000,11000,26,,,,1,,,13.760815,100.555733
เดอะ พาร์คแลนด์ ตากสิน-ท่าพระ,4000000,15000,35,,,1,1,,,13.716321,100.480608
,4770000,17000,41,,,1,1,,,13.778809,100.574207
ไอดีโอ โมบิ อโศก,6700000,,35,,,1,1,,,13.748426,100.565972
เดอะ เบส สุขุมวิท 77,3400000,,31,,,1,1,,,13.710945,100.602343
,4300000,,45,,,1,1,,,13.716839,100.585358
เดอะ โมนูเมนต์ สนามเป้า,17600000,,57,,,1,1,,,13.76945,100.540555
ไอดีโอ โมบิ สุขุมวิท 66,8530000,,53,,,1,1,,,13.681605,100.609846
อัพ เอกมัย,5640000,25000,40,,,1,1,,,13.739269,100.588721
,4080000,,29,,,1,1,,,13.722909,100.576852
คลาส สยาม,6890000,,44,,,1,1,,,13.747592,100.528244
เดอะ ไลน์ จตุจักร-หมอชิต,12900000,,86,,,3,2,1,4,13.806298,100.556175
เบล อเวนิว พระราม 9,25800000,,139,,,2,2,,,13.760067,100.569381
สิริ แอท สุขุมวิท,14100000,56000,70,,,2,2,,,13.722573,100.580227
,5500000,19000,46,,,1,1,,,13.798751,100.575843
เมย์แฟร์ เพลส สุขุมวิท 50,3860000,,35,,,1,1,,,13.704712,100.594891
,17500000,,61,,,1,1,,,13.726193,100.569733
อีควิน๊อกซ์ พหล-วิภา,10500000,,,,,2,2,,,13.809454,100.55895
,3040000,,25,,,,1,,,13.754357,100.563878
เดอะ ไลท์เฮ้าส์ สาทร-เจริญนคร,7980000,35000,69,,,2,2,,,13.7224,100.508352
เอดจ์ สุขุมวิท 23,6490000,,32,,,1,1,,,13.736521,100.563365
ไลฟ์ อโศก,4330000,,29,,,1,1,,,13.750283,100.564773
ไอดีโอ คิว สยาม - ราชเทวี,6480000,,34,,,1,1,,,13.75301,100.533877
,6660000,,35,,,1,1,,,13.755979,100.563553
ไซมิส เธอร์ตี้ไนน์,14000000,60000,91,,,2,3,1,4,13.739067,100.572566
วิสซ์ดอม สเตชั่น รัชดา-ท่าพระ,2460000,,23,,,,1,,,13.713712,100.478352
เซนส์ พหลโยธิน,3240000,,35,,,1,1,,,13.789005,100.552243
,6340000,,35,,,1,1,,,13.75939,100.541384
,4250000,,32,,,1,1,,,13.797477,100.55176
,7750000,,35,,,1,1,,,13.723379,100.561026
ดิแอดเดรสสยาม,10150000,25000,72,,,2,2,,,13.752146,100.534294
ไลฟ์ รัชดาภิเษก,5500000,20000,45,,,1,1,,,13.790669,100.574196
แอชตัน จุฬา-สีลม,16290000,,63,,,2,2,,,13.731096,100.531012
,5000000,23000,40,,,1,1,,,13.724428,100.581965
เอเทรี่ยม พหลโยธิน-สุทธิสาร,2600000,,31,,,1,1,,,13.787787,100.552763
เดอะ นิช รัชดา-ห้วยขวาง,2880000,,35,,,1,1,,,13.768423,100.648183
วิลล่า สาทร,4000000,,42,,,,1,,,13.721234,100.504148
,2940000,,25,,,1,1,,,13.79728,100.552184
ริทึ่ม รางน้ำ,11690000,,54,,,2,2,,,13.761155,100.536971
เดอะ เพรสซิเด้นท์ สาทร-ราชพฤกษ์ 1,2550000,,35,,,1,1,,,13.72043,100.458841
,7980000,30000,45,,,2,1,,,13.704024,100.602008
คิวเฮ้าส์ คอนโด สาทร ,7950000,,57,,,2,2,,,13.72129,100.501253
ดิ แอดเดรส สุขุมวิท 28,15960000,60000,67,,,2,2,,,13.728051,100.572452
วิช ซิกเนเจอร์ มิดทาวน์ สยาม,6000000,,33,,,1,1,,,13.751983,100.534693
วิสซ์ดอม คอนเนค สุขุมวิท,4540000,,29,,,1,1,,,13.685642,100.610619
นอตติ้ง ฮิลล์ ดิ เอ็กซ์คลูซีฟ เจริญกรุง,3900000,,36,,,1,1,,,13.703664,100.504264
ซีล บาย แสนสิริ,3520000,,30,,,1,1,,,13.730372,100.587924
,4000000,,30,,,1,1,,,,
เดอะ เพรสซิเดนท์ สาทร-ราชพฤกษ์ 2,2550000,12000,30,,,1,1,,,13.719384,100.458654
แชปเตอร์วัน มิดทาวน์ ลาดพร้าว 24,2990000,,24,,,1,1,,,13.806471,100.572747
,4790000,,28,,,1,1,,,13.755979,100.563553
เดอะ ไลน์ จตุจักร-หมอชิต,6530000,,35,,,1,1,,,13.806244,100.556048
ไอดีโอเวิร์ฟ,5766000,20000,49,,,2,1,,,13.754496,100.54253
ริทึ่ม สุขุมวิท 44/1,8500000,,45,,,1,1,,,13.715212,100.590594
,5000000,,32,,,1,1,,,13.754267,100.564468
ฮาเว่น ลุกซ์ พหลโยธิน,5860000,23000,66,,,1,1,,,13.788083,100.553623
,3130000,14000,31,,,1,1,,,13.721818,100.580479
แอชตัน อโศก,10825000,,34,,,,1,,,13.738898,100.5609
ศุภาลัย ลอฟท์ @ สถานีตลาดพลู,2432000,,33,,,,1,,,13.711298,100.479447
แอ็บสแตร็กส์ พหลโยธิน พาร์ค,4900000,,45,,,1,1,,,13.818025,100.564932
,7220000,,30,,,1,1,,,13.722468,100.58455
,6600000,,65,,,2,2,,,13.71118,100.593972
ไอดีโอ โมบิ สุขุมวิท,,,22,,,1,1,,,13.704024,100.602008
ไอดีโอ ท่าพระ อินเตอร์เชนจ์,2670000,,28,,,,1,,,13.728973,100.475815
ไอดีโอ คิว สยาม - ราชเทวี,9500000,,50,,,2,1,,,13.75301,100.533877
คาซ่า คอนโด รัชดา-ราชพฤกษ์ ,3720000,,36,,,1,1,,,13.713727,100.476237
,6320000,,41,,,1,1,,,13.75598,100.568231
,4430000,,28,,,1,1,,,,
,4550000,,50,,,1,1,,,13.721818,100.580479
ศุภาลัย ริเวอร์ รีสอร์ท,35000000,,253,,,3,5,,,13.708888,100.495038
,3769000,,36,,,1,1,,,13.772054,100.579979
,9880000,,54,,,2,1,,,13.748426,100.565972
,3430000,15000,36,,,1,1,,,13.713493,100.586719
,5520000,22000,39,,,1,1,,,13.809454,100.55895
เลอพรีเมียร์ 1,18500000,,171,,,3,3,,,13.737603,100.562714
ดิแอดเดรสพญาไท,13300000,,61,,,2,1,,,13.759357,100.531765
ซี เอกมัย,4250000,,34,,,1,1,,,13.740205,100.589785
ศุภาลัย เอลีท สาทร-สวนพลู,7500000,30000,53,,,1,1,,,13.721157,100.537437
แอสปาย สุขุมวิท 48,3730000,,38,,,1,1,,,13.71118,100.593972
วิสซ์ดอม คอนเนค สุขุมวิท,6890000,,49,,40,2,1,,3,13.686284,100.611135
เดอะริช สาทร - ตากสิน,4260000,,30,,,1,1,,,13.719953,100.493851
ไลฟ์ อโศก-พระราม 9 ,3840000,,25,,,,1,,,13.754357,100.563878
,18800000,,132,,,2,3,,,13.731711,100.571119
เดอะ ไลน์ จตุจักร-หมอชิต,13370000,,62,,,2,2,,,13.806244,100.556048
ริทึ่ม รัชดา,10420000,31000,72,,,2,2,,,13.798751,100.575843
,8500000,40000,70,,,2,2,,,13.729745,100.575979
ไอดีโอ โมบิ สาทร,7450000,25000,42,,,1,1,,,13.721271,100.500588
,18760000,,136,,,2,3,,,13.731711,100.571119
คาซ่า คอนโด อโศก-ดินแดง ,2800000,16000,30,,,1,1,,,13.760815,100.555733
,4140000,,24,,,1,1,,,13.795858,100.550205
เอดจ์ สุขุมวิท 23,6600000,,32,,,1,1,,,13.736521,100.563365
ไลฟ์ อโศก,4635000,,29,,,1,1,,,13.750283,100.564773
,3350000,,34,,,1,1,,,13.75633,100.571409
ไฮด์ สุขุมวิท,25930000,70000,110,,,2,2,,,13.740361,100.557288
คาซ่า คอนโด อโศก-ดินแดง ,2800000,,30,,,1,1,,,13.760815,100.555733
ศุภาลัย ปาร์ค อโศก-รัชดา,3964500,15000,50,,,1,1,,,13.756092,100.560767
วิลล่า สาทร,11550000,40000,89,,,2,2,,,13.721234,100.504148
,5500000,,45,,,1,1,,,13.786325,100.573246
,6695000,,35,,,1,1,,,13.75939,100.541384
โอกะ เฮ้าส์ สุขุมวิท 36,5825000,,41,,,2,1,,,13.71581,100.574985
แอสปาย พระราม9,7980000,30000,66,,,2,2,,,13.754805,100.566923
,7520000,,35,,,1,1,,,13.722468,100.58455
อมันตา ลุมพินี,18000000,55000,93,,,2,2,,,13.723162,100.551403
,2850000,,42,,,1,1,,,13.678308,100.606222
เออร์บาโน่ แอบโซลูท สาทร-ตากสิน,4470000,20000,38,,,1,1,,,13.721125,100.507202
สิริ แอท สุขุมวิท,8600000,33000,52,,,1,1,,,13.722573,100.580227
เซอร์เคิล คอนโดมิเนียม,5860000,25000,48,,,1,1,,,13.749275,100.555941
ไอดีโอ คิว ราชเทวี,5900000,,35,,,1,1,,,13.75282,100.533865
ลุมพินี ซีเล็คเต็ด สุทธิสาร - สะพานควาย,290000,,47,,,2,1,1,3,13.788949,100.553837
ดิ แอดเดรส สาทร,10640000,35000,56,,,1,1,,,13.722747,100.52563
ดิ อินฟินิตี้,22000000,,102,,,2,2,,,13.723329,100.529204
รีเจ้นท์ ออคิด สุขุมวิท 101,3570000,,28,,,1,1,,,13.691353,100.610298
มานนท์เพลส,650000,,32,,,1,1,1,1,14.105167,100.983864
เมโทร ปาร์ค สาทร,2120000,,43,,,1,1,,,13.709118,100.451345
,7260000,33000,34,,,1,1,,,13.741965,100.544311
เอช สุขุมวิท 43,10500000,,59,,,2,2,,,13.732767,100.574008
มายคอนโด สุขุมวิท 81,2680000,14000,35,,,1,1,,,13.689237,100.607535
ดิ แอดเดรส สุขุมวิท 42,5671000,,,,,1,1,,,13.716839,100.585358
เดอะ แบงค็อค สาทร,27840000,,107,,,2,2,,,13.71916,100.52069
คิวเฮ้าส์ คอนโด สาทร ,6050000,22000,46,,,1,1,,,13.72129,100.501253
เดอะ ไลน์ จตุจักร-หมอชิต,6410000,,33,,,1,1,,,13.806244,100.556048
เอ สเปซ ไอดี อโศก-รัชดา,5110000,,33,,,1,1,,,13.756804,100.560239
ไอดีโอ สาทร-ท่าพระ,2880000,,22,,,1,1,,,13.717258,100.482319
ซิทริน สาทร-ตากสิน,5000000,,53,,,1,1,,,13.721458,100.492741
วัน ทองหล่อ สเตชั่น,6370000,20000,50,,,1,1,,,13.721818,100.580479
ฮาร์โมนีลิฟวิ่ง,7906000,,86,,,2,2,,,13.787424,100.546179
,5320000,,67,,,2,2,,,13.71246,100.595447
ไอคอนโด เสรีไทย,7000,,25,,,1,1,,2,13.774689,100.65806
ไอดีโอ คิว สยาม - ราชเทวี,6960000,,35,,,1,1,,,13.75301,100.533877
วิสซ์ดอม สเตชั่น รัชดา-ท่าพระ,8440000,,52,,,2,2,,,13.713712,100.478352
เอ็ม ทองหล่อ 10,6600000,20000,33,,,1,1,,,13.730773,100.586811
บีทนิค สุขุมวิท 32,17040000,,54,,,1,1,,,13.726547,100.575382
,5530000,,45,,,1,1,,,13.788905,100.545271
,28410000,,110,,,3,3,,,13.722079,100.55337
,4250000,,29,,,1,1,,,13.750283,100.564773
แอชตัน สีลม,21977000,,76,,,2,2,2,,13.726014,100.526999
ลุมพินีเพลส พระราม 3-ริเวอร์ไรน์,3700000,,35,,,2,1,,,13.675132,100.539449
เดอะ ลุมพินี 24,5900000,,26,,,1,1,,,13.722535,100.566242
,6600000,33000,53,,,1,1,,,13.730928,100.58638
คิวเฮ้าส์คอนโด สุขุมวิท 79,6700000,25000,43,,,2,1,,,13.707504,100.600429
เอดจ์ สุขุมวิท 23,9490000,,43,,,1,1,,,13.736521,100.563365
เมโทร สกาย รัชดา,3410000,14000,35,,,2,1,,,13.784071,100.571346
,27700000,,163,,,3,4,,,13.729288,100.562496
เดอะ เบส พาร์คเวสต์ - สุขุมวิท 77,3620000,15000,29,,,1,1,,,13.712959,100.600039
เดอะ ไลน์ จตุจักร-หมอชิต,4950000,,27,,,1,1,,,13.806244,100.556048
,4360000,,32,,,1,1,,,13.754357,100.563878
วิช ซิกเนเจอร์ มิดทาวน์ สยาม,6340000,,30,,,1,1,,,13.751983,100.534693
,4320000,,29,,,1,1,,,13.750283,100.564773
ไอดีโอโมบิ วงศ์สว่าง-อินเตอร์เชนจ์,3000000,,22,,,1,1,,,13.818953,100.532139
ซี เอกมัย,3680000,,27,,,1,1,,,13.740205,100.589785
เดอะ ไลน์ ราชเทวี,8770000,,34,,,1,1,,,13.752446,100.533475
โนเบิล รีวอลฟ์ รัชดา 2,8500000,,53,,,2,2,,,13.763628,100.569442
แบงค์คอกเฟลิซ สุขุมวิท 69,3830000,18000,34,,,1,1,,,13.715325,100.592021
ศุภาลัย ไลท์ รัชดาฯ-นราธิวาส-สาทร,4030000,,50,,,1,1,,,13.7023,100.542247
ไลฟ์ อโศก-พระราม 9 ,4210822,,28,,,,1,,,13.754357,100.563878
ฟิวส์ จันทน์-สาทร,3050000,,33,,,1,1,,,13.705683,100.530433
ไอดีโอ สุขุมวิท 93,4590000,,31,,,1,1,,,13.698563,100.604805
ซีล บาย แสนสิริ,4300000,21000,35,,,1,1,,,13.730372,100.587924
,21000000,80000,125,,,2,3,,,13.743606,100.561252
นิช ไพรด์ ทองหล่อ-เพชรบุรี,3400000,,30,,,1,1,,,13.744899,100.583468
แอสปาย สาทร-ตากสิน (บริค โซน),2730000,,27,,,1,1,,,13.715635,100.479962
,6400000,,35,,,1,1,,,13.755979,100.563553
,3600000,,31,,,1,1,,,13.715635,100.479962
ควอด สีลม,8730000,30000,46,,,1,1,,,13.724,100.530389
เดอะ ไลน์ สุขุมวิท 71,4701000,,30,,,1,1,,,13.715203,100.594754
ไลฟ์ อโศก-พระราม 9 ,2950000,1,28,,,,1,,,13.754357,100.563878
,5800000,,36,,,1,1,,,13.75598,100.568231
ดิ เอ็มไพร์ เพลส สาทร,31910000,,164,,,3,3,,,13.719323,100.531126
คอนโดเลต ไอซ์ ราชเทวี,5290000,20000,31,,,1,1,,,13.753338,100.530981
,5500000,25000,33,,,1,1,,,13.757169,100.5354
,4350000,17000,40,,,1,1,,,13.778809,100.574207
เซอร์เคิล คอนโดมิเนียม,5000000,,44,,,1,1,,,13.749275,100.555941
,8000000,,40,,,1,1,,,13.722079,100.55337
,2100000,,25,,,1,1,,,13.774053,100.576856
เออร์บาโน่ แอบโซลูท สาทร-ตากสิน,4400000,,38,,,1,1,,,13.721125,100.507202
,5270000,15000,60,,,2,2,,,13.804437,100.576231
เดอะ นิช วงเวียนใหญ่-ตากสิน,4790000,,66,,,2,2,,,13.72704,100.491082
ยูดีไลท์ 3 ประชาชื่น-บางซื่อ,2700000,12000,32,,,1,1,,,13.825056,100.537588
,3660000,,31,,,1,1,,,13.744899,100.583468
,3950000,,36,,,1,1,,,13.744076,100.587201
เซ็นทริค ห้วยขวาง สเตชั่น,4840000,,32,,,1,1,,,13.780297,100.573986
เออร์บาโน่ แอบโซลูท สาทร-ตากสิน,3650000,,30,,,1,1,,,13.721125,100.507202
,6600000,,65,,,2,2,,,13.71118,100.593972
ไลฟ์ อโศก-พระราม 9 ,6940000,,45,,,2,1,,,13.754357,100.563878
ริทึ่ม สุขุมวิท 44/1,8200000,45000,52,,,2,1,,,13.715212,100.590594
,6400000,,28,,,,1,,,13.790049,100.547449
แอสปาย สาทร-ตากสิน (บริค โซน),3285600,,31,,,1,1,,,13.715635,100.479962
เดอะ ไลน์ จตุจักร-หมอชิต,9043000,,43,,,2,1,,,13.806244,100.556048
ศุภาลัย ปาร์ค อโศก-รัชดา,3830000,,50,,,1,1,,,13.756092,100.560767
,3000000,13000,30,,,1,1,,,13.754985,100.575145
,5500000,20000,30,,,1,1,,,13.818953,100.532139
เดอะ บางกอก นราธิวาสราชนครินทร์,6000000,29000,75,,,2,2,,,13.708602,100.533162
แอสปาย สุขุมวิท 48,3870000,18000,38,,,1,1,,,13.71118,100.593972
โนเบิล รีไฟน์,9600000,35000,58,,,,1,,,13.728365,100.568836
เดอะทรัสต์ เรสซิเด้นซ์ รัชดา-พระราม 3,2080000,,30,,,1,1,,,13.694152,100.536283
ไลฟ์ อโศก-พระราม 9 ,4270835,,32,,,1,1,,,13.754357,100.563878
ไอดีโอ คิว จุฬา-สามย่าน,5680000,,34,,,1,1,,,13.733349,100.527144
อินโทร พหลโยธิน-ประดิพัทธ์,5000000,,45,,,1,1,,,13.79205,100.539261
ไอดีโอ สาทร-ท่าพระ,2000000,,21,,,1,1,,,13.717258,100.482319
เดอะริช สาทร - ตากสิน,2784000,,26,,,1,1,,,13.719953,100.493851
ริทึ่ม รัชดา-ห้วยขวาง,6000000,,46,,,1,1,,,13.77788,100.573958
ดิ แอดเดรส อโศก,5800000,,36,,,1,1,,,13.749514,100.561981
ไลฟ์ อโศก,4850000,,35,,,1,1,,,13.750283,100.564773
แอสปาย พระราม9,3460000,15000,32,,,1,1,,,13.754805,100.566923
แอชตัน จุฬา-สีลม,5250000,,25,,,1,1,,,13.731096,100.531012
เดอะเน็กซ์ การ์เด้นสูท,4470000,,52,,,1,1,,,13.703637,100.599567
,2800000,,117,,,3,2,2,4,13.634217,100.69385
ไอดีโอ คิว ราชเทวี,6100000,20000,34,,,1,1,,,13.75282,100.533865
แอสปาย สุขุมวิท 48,4790000,16000,54,,,2,2,,,13.71118,100.593972
,4480000,,30,,,1,1,,,13.695377,100.605772
,4900000,,38,,,1,1,,,13.795069,100.550558
,10570000,,43,,,1,1,,,13.722079,100.55337
เดอะ เทมโป แกรนด์ สาทร-วุฒากาศ,3300000,,29,,,1,1,,,13.712604,100.467943
ไอดีโอ คิว ราชเทวี,6200000,,34,,,1,1,,,13.75282,100.533865
เดอะ ซี้ด เตร์เร รัชโยธิน,4200000,16000,40,,,1,1,,,13.830305,100.569721
เลอนีซ เอกมัย,4260000,20000,40,,,1,1,,,13.725724,100.585369
คอนโดเลต ไอซ์ ราชเทวี,5150000,,31,,,1,1,,,13.753338,100.530981
ไอดีโอ โมบิ สุขุมวิท อีสท์เกต,2350000,,22,,,1,1,1,1,13.665637,100.603751
ไอดีโอ สาทร-ท่าพระ,2560000,,22,,,1,1,,,13.717258,100.482319
เซ็นทริค สาทร-เซนต์หลุยส์,8970000,,60,,,2,2,,,13.718619,100.527063
ริทึ่ม รัชดา,5860000,,46,,,1,1,,,13.798751,100.575843
ทรูทองหล่อ,5800000,30000,65,,,2,2,,,13.744202,100.58534
ไอดีโอ คิว สยาม - ราชเทวี,6770000,,34,,,1,1,,,13.75301,100.533877
เดอะ รูม สาทร-เซนต์หลุยส์,5430000,18000,35,,,1,1,,,13.707455,100.526693
ดิ แอดเดรส อโศก,9720000,,65,,,2,2,,,13.749514,100.561981
,12610000,60000,70,,,2,2,,,13.735622,100.573342
ดิ แอดเดรส สุขุมวิท 61,10650000,40000,56,,,1,1,,,13.723508,100.583343
อมันตา รัชดา,8000000,35000,85,,,2,2,,,13.765215,100.567935
แอชตัน จุฬา-สีลม,10240000,,35,,,1,1,,,13.731096,100.531012
ไอวี่ ทองหล่อ,6600000,25000,37,,,1,1,,,13.737175,100.583555
ไฮด์ สุขุมวิท,42600000,,182,,,3,3,,,13.740361,100.557288
รัชดาซิตี้ 18,2350000,,32,,,1,1,,,13.778454,100.575491
ไนท์บริดจ์ ไพร์ม สาทร,6000000,,37,,,1,1,,,13.716801,100.533128
วิสซ์ดอม อเวนิว รัชดา-ลาดพร้าว,4720000,,31,,,1,1,,,13.80522,100.574214
เดอะ ลอฟท์ เอกมัย,6180000,,33,,,1,1,,,13.718323,100.587363
ไอดีโอ สุขุมวิท 93,4180000,,35,,,1,1,,,13.698563,100.604805
ริทึ่ม สุขุมวิท,6780000,,45,,,1,1,,,13.706522,100.59934
เอ็ม จตุจักร,5320000,,32,,,1,1,,,13.797477,100.55176
ดิ เอ็มไพร์ เพลส สาทร,19140000,,100,,,2,2,,,13.719323,100.531126
โมริ เฮาส์,7720000,28000,47,,,2,2,,,13.715009,100.602331
วิสซ์ดอม สเตชั่น รัชดา-ท่าพระ,2580000,,23,,,1,1,,,13.713712,100.478352
แอชตัน อโศก,10825000,,34,,,,1,,,13.738898,100.5609
นอตติ้ง ฮิลล์ ดิ เอ็กซ์คลูซีฟ เจริญกรุง,3920000,,36,,,1,1,,,13.703664,100.504264
โนเบิล รีโคล สุขุมวิท 19,13920000,,68,,,2,2,,,13.742184,100.559938
,4500000,18000,41,,,1,1,,,13.778809,100.574207
เอสแอนด์เอส สุขุมวิท,2800000,,48,,,1,1,,,13.683741,100.614941
วิสซ์ดอม สเตชั่น รัชดา-ท่าพระ,3750000,,32,,,1,1,,,13.713712,100.478352
โนเบิล รีวอลฟ์ รัชดา,2750000,,22,,,1,1,,,13.763691,100.569463
ริทึ่ม สาทร,5876000,25000,35,,,1,1,,,13.717856,100.516763
เบล อเวนิว พระราม 9,11520000,,96,,,2,2,,,13.760067,100.569381
The Room เจริญกรุง 30,15460000,,77,,,2,2,,,13.728981,100.515637
เซ็นทริค ซีน พหลโยธิน 9,10860000,,102,,,2,2,,,13.785947,100.546182
เดอะ ไลน์ สุขุมวิท 101,3510000,,28,,,1,1,,,13.692036,100.607939
,25600000,80000,100,,,2,2,,,13.72974,100.581259
เดอะ ริเวอร์,22000000,75000,102,,,2,2,,,13.721558,100.510307
วอเตอร์ฟอร์ต สุขุมวิท 50,4730000,23000,65,,,2,2,,,13.707054,100.593744
,7930000,,31,,,1,1,,,13.726391,100.526828
เมซองเดอวิลล์,2200000,,32,,,1,1,,,13.792032,100.547813
เวนิโอ สุขุมวิท 10,5600000,,34,,,1,1,,,13.734894,100.556933
,4100000,,29,,,1,1,,,,
วิช ซิกเนเจอร์ มิดทาวน์ สยาม,6590000,,34,,,1,1,,,13.751983,100.534693
เดอะรีเซิร์ฟ เกษมสันต์ 3,7520000,,40,,,1,1,,,13.749074,100.527364
ไลฟ์ รัชดาภิเษก,4260000,,32,,,1,1,,,13.790669,100.574196
มาเอสโตร 03 รัชดา - พระราม 9,4326000,,29,,,1,1,,,13.76283,100.564577
เดอะ แบงค็อค สาทร,15960000,55000,59,,,1,1,,,13.71916,100.52069
พาร์ค 24 เฟส 1,6235000,,28,,,1,1,,,13.725512,100.566204
,5900000,20000,55,,,1,1,,,13.721234,100.504148
นารา ไนน์,6800000,,38,,,1,1,,,13.71782,100.532711
,5318000,,76,,,2,2,,,13.769198,100.578202
เซนส์ พหลโยธิน,3300000,,30,,,1,1,,,13.789005,100.552243
แอชตัน จุฬา-สีลม,10240000,,35,,,1,1,,,13.731096,100.531012
,5400000,,35,,,1,1,,,,
เดอะ ไลน์ ราชเทวี,19200000,,79,,,2,2,,,13.752446,100.533475
,9800000,,35,,,1,1,,,13.738779,100.561802
,7380000,,47,,,2,1,,,13.751983,100.534693
วิลล่า สาทร,8300000,27000,89,,,2,2,,,13.721234,100.504148
,7500000,36000,48,,,,1,,,13.723244,100.568565
ไลฟ์ อโศก-พระราม 9 ,4600000,,40,,,1,1,,,13.754357,100.563878
รัชดาซิตี้ 18,2350000,,32,,,1,1,,,13.778454,100.575491
ไอดีโอ สุขุมวิท 93,3630000,,26,,,1,1,,,13.698563,100.604805
ไอดีโอโมบิ วงศ์สว่าง-อินเตอร์เชนจ์,3540000,,30,,,1,1,,,13.818953,100.532139
เซอร์เคิล สุขุมวิท 11,7600000,,46,,,1,1,,,13.749738,100.556046
เออร์บาโน่ แอบโซลูท สาทร-ตากสิน,9300000,,74,,,2,2,,,13.721125,100.507202
คิว ชิดลม-เพชรบุรี,5950000,,35,,,1,1,,,13.749404,100.543869
,11800000,37500,93,,,2,2,,,13.722625,100.538722
บ้านปทุมวัน,40000000,60000,260,,,3,4,,,13.754947,100.532485
ดิ แอดเดรส สาทร,10640000,32000,56,,,1,1,,,13.722747,100.52563
,2910000,,25,,,,1,,,13.754357,100.563878
คีนน์ บาย แสนสิริ,23000000,85000,82,,,2,2,,,13.724993,100.576933
เซ็นทริค สาทร-เซนต์หลุยส์,7600000,33000,60,,,2,2,,,13.718619,100.527063
เดอะทรัสต์ เรสซิเด้นซ์ รัชดา-พระราม 3,2500000,15000,30,,,1,1,,,13.694152,100.536283
,8160000,,40,,,1,1,,,13.725512,100.566204
มาเอสโตร 03 รัชดา - พระราม 9,3850000,,29,,,1,1,,,13.76283,100.564577
,4590000,,27,,,,1,,,13.751983,100.534693
เดอะ คีย์ วุฒากาศ ,3620000,,33,,,1,1,,,13.713949,100.468175
,25000000,,135,,,2,2,,,13.723244,100.568565
โนเบิล โซโล,6900000,30000,51,,,1,1,,,13.740159,100.585009
เดอะ คีย์ สาทร-ราชพฤกษ์,2474000,,32,,,1,1,,,13.712998,100.465803
โนเบิลเฮ้าส์ พญาไท,6955000,,40,,,1,1,,,13.757169,100.5354
ไอดีโอ คิว สยาม - ราชเทวี,6920000,,34,,,1,1,,,13.75301,100.533877
พาร์ค 24 เฟส 1,7450000,30000,32,,,1,1,,,13.725512,100.566204
เดอะ ไลน์ จตุจักร-หมอชิต,7220000,,35,,,1,1,,,13.806244,100.556048
,1950000,15000,28,,,1,1,,,13.70474,100.606935
ไบร์ท วงเวียนใหญ่,4550000,,38,,,1,1,,,13.719524,100.490599
วิลล่า ราชเทวี,6290000,21000,40,,,1,1,,,13.754345,100.532544
เอ็ม จตุจักร,4240000,,32,,,1,1,,,13.797477,100.55176
ไอดีโอ คิว จุฬา-สามย่าน,8460000,,50,,,2,1,,,13.733349,100.527144
,2510000,,28,,,1,1,,,13.675132,100.539449
,3500000,,40,,,1,1,,,13.705787,100.598306
แอสปาย สาทร-ตากสิน ทิมเบอร์ โซน,2130000,,26,,,1,1,,,13.713428,100.463978
เดอะ ไลท์เฮ้าส์ สาทร-เจริญนคร,8500000,30000,70,,,2,2,,,13.7224,100.508352
เอ สเปซ อโศก-รัชดา,2550000,,35,,,1,1,,,13.75685,100.560255
ไลฟ์ อโศก,4280000,,29,,,,1,,,13.750283,100.564773
แอชตัน จุฬา-สีลม,9820000,,35,,,1,1,,,13.731096,100.531012
มาเอสโตร 12 ราชเทวี,5830000,24000,36,,,1,1,,,13.753911,100.529584
เดอะ ไลน์ สุขุมวิท 71,5550000,,34,,,1,1,,,13.715203,100.594754
ไนท์บริดจ์ ไพร์ม สาทร,4800000,,30,,,1,1,,,13.716801,100.533128
,3330000,,30,,,1,1,,,13.772054,100.579979
ควอทโทร บาย แสนสิริ,13300000,50000,52,,,1,1,,,13.727561,100.581708
คอนโด ไลฟ์ แอท พหล 18,2700000,,30,,,1,1,1,2,13.796847,100.552895
แอชตัน จุฬา-สีลม,5650000,,25,,,1,1,,,13.731096,100.531012
ออนิกซ์ พหลโยธิน,5280000,17000,30,,,1,1,,,13.791457,100.548475
วิลล่า ราชเทวี,8500000,,45,,,1,1,,,13.754345,100.532544
เดอะ เทอร์ตี้ไนน์ ,19100000,75000,55,,,1,1,,,13.73221,100.570896
,4200000,,52,,,1,1,,,13.715739,100.547055
ไลฟ์ อโศก-พระราม 9 ,3310000,,28,,,,1,,,13.754357,100.563878
เซ็นทริคซีน สุขุมวิท 64,3730000,,35,,,1,1,,,13.683711,100.61034
,4980000,,29,,,1,1,,,,
เดอะ ซี้ด มูซี่,5800000,,52,,,1,1,,,13.725252,100.570963
ลุมพินี พาร์ค ริเวอร์ไซด์ พระราม 3	,2800000,,33,,,1,1,,,13.679026,100.527594
,3890000,,29,,,1,1,,,,
โมนีค สุขุมวิท 64,2470000,,28,,,1,1,,,13.688779,100.602379
ไอดีโอ ท่าพระ อินเตอร์เชนจ์,9000000,,71,,,2,2,,,13.728973,100.475815
,4490000,,32,,,1,1,,,13.754357,100.563878
เอ สเปซ ไอดี อโศก-รัชดา,4800000,,34,624/200,12,1,1,1,2,13.756709,100.559808
สาทร พลัส ออน เดอะ พอนด์,3730000,15000,52,,,1,1,,,13.715639,100.546967
The Room สาทร-ตากสิน,4580000,22000,46,,,1,1,,,13.717746,100.483477
เบล อเวนิว พระราม 9,10900000,42000,77,,,2,1,,,13.760067,100.569381
,5500000,25000,33,,,1,1,,,13.757169,100.5354
เดอะ ไลน์ จตุจักร-หมอชิต,7130000,,35,,,1,1,,,13.806244,100.556048
ไอดีโอ วุฒากาศ,3000000,,30,,,1,1,,,13.714664,100.467627
ไอดีโอ คิว ราชเทวี,6600000,24000,34,,,1,1,,,13.75282,100.533865
ริทึ่ม สุขุมวิท 36 – 38,5320000,20000,24,,,1,1,,,13.721609,100.576892
ศุภาลัย เวลลิงตัน 2,3480000,,45,,,1,1,,,13.767032,100.578865
,11610000,,42,,,1,1,,,13.719733,100.522404
เดอะ ไลน์ จตุจักร-หมอชิต,13608300,,62,,,2,2,,,13.806244,100.556048
เดอะ ไลน์ จตุจักร-หมอชิต,11515000,,59,,,2,2,,,13.806244,100.556048
ศุภาลัย ริเวอร์ รีสอร์ท,3800000,,38,,,1,1,,,13.708888,100.495038
ไอดีโอ วุฒากาศ,2560000,,21,,,1,1,,,13.714664,100.467627
ไลฟ์ อโศก,4900000,,29,,,1,1,,,13.750283,100.564773
ไอดีโอ โมบิ อโศก,6360000,,35,,,1,1,,,13.748426,100.565972
เดอะ ไลน์ จตุจักร-หมอชิต,6635000,,33,,,1,1,,,13.806244,100.556048
,2770000,12000,22,,,,1,,,13.717258,100.482319
,3950000,,30,,,1,1,,,13.712821,100.594265
,9590000,,35,,,1,1,,,13.738779,100.561802
เดอะ พาร์คแลนด์ ตากสิน-ท่าพระ,4255319,,35,,,1,1,,,13.716321,100.480608
เวีย 31,6600000,30000,47,,,1,1,,,13.739322,100.568387
อมันตา รัชดา,12000000,,120,,,2,2,,,13.765215,100.567935
เดอะ แคปปิตอล ราชปรารภ-วิภา,6325000,,50,,,2,2,,,13.763877,100.546047
,27840000,,92,,,2,2,,,13.735221,100.54161
โนเบิล รีวอลฟ์ รัชดา,4700000,18000,27,,,1,1,,,13.763691,100.569463
ไอดีโอ โมบิ สุขุมวิท 66,8250000,,53,,,1,1,,,13.681605,100.609846
The Room สุขุมวิท 79,6370000,,58,,,2,2,,,13.707963,100.601566
,8000000,,40,,,1,1,,,13.722079,100.55337
,3636000,,25,,,,1,,,13.754357,100.563878
ไลฟ์ สุขุมวิท 48,3640000,,33,,,1,1,,,13.711512,100.594775
วิสซ์ดอม อเวนิว รัชดา-ลาดพร้าว,5078000,,35,,,1,1,,,13.80522,100.574214
,3900000,,36,,,1,1,,,13.713493,100.586719
โคเรสซิโอ สาทร-พิพัฒน์,6920000,26000,44,,,1,1,,,13.723335,100.53186
วิลล่า สาทร,8300000,27000,89,,,2,2,,,13.721234,100.504148
,5400000,,35,,,1,1,,,,
ณ วรา เรสซิเดนซ์,9650000,,39,,,1,1,,,13.741869,100.544394
ยู สบาย พระราม 4 - กล้วยน้ำไท,7490000,35000,75,,,2,2,,,13.713493,100.586719
แอสปาย สาทร-ท่าพระ,2840000,,31,,,1,1,,,13.715635,100.479962
ชีวาทัย เรสซิเดนซ์ อโศก,5640000,17000,30,,,1,1,,,13.753899,100.564346
แอสปาย พระราม9,7700000,30000,66,,,2,2,,,13.754805,100.566923
เดอะ พาร์คแลนด์ เพชรเกษม – ท่าพระ,3080000,12000,32,,,1,1,,,13.728395,100.477949
ริทึ่ม สาทร,10100000,55000,61,,,2,2,,,13.718825,100.532778
อินเตอร์ ลักส์ พรีเมียร์ สุขุมวิท 13 ,4850000,35000,36,,,1,1,,,13.74768,100.558161
วิลล่า ราชเทวี,21300000,55000,85,,,2,2,,,13.754345,100.532544
แอสปาย สาทร-ตากสิน ทิมเบอร์ โซน,3480000,11500,31,,,1,1,,,13.715635,100.479962
วิลล่า สาทร,4000000,,42,,,,1,,,13.721234,100.504148
พรีเมียร์ คอนโดมิเนียม,13000000,40000,129,,,2,1,,,13.727427,100.568629
,4260000,,51,,,1,1,,,13.726568,100.528252
ไอดีโอมิกซ์ สุขุมวิท 103 ,3500000,,31,,,1,1,,,13.680549,100.610491
,4200000,,43,,,1,1,,,13.754985,100.575145
,12810000,,68,,,2,2,,,13.739801,100.551763
บีทนิค สุขุมวิท 32,16392000,,54,,,1,1,,,13.726547,100.575382
เดอะ คีย์ วุฒากาศ ,3190000,,35,,,1,1,,,13.713949,100.468175
ไอดีโอเวิร์ฟ,6313000,,48,,,2,1,,,13.754496,100.54253
ไอวี แอมพิโอ,7750000,,44,,,1,1,,,13.762857,100.568267
333 ริเวอร์ไซด์,5100000,,46,,,1,1,,,13.806523,100.51946
ริทึ่ม สาทร,7450000,,45,,,1,1,,,13.717856,100.516763
วิสซ์ดอม คอนเนค สุขุมวิท,4030000,,30,,,1,1,,,13.685642,100.610619
ศุภาลัย เอลีท แอท พญาไท,12000000,,94,,,2,2,,,13.756987,100.539217
,6290000,,37,,,1,1,,,13.716801,100.533128
The Room BTS วงเวียนใหญ่,7800000,,48,,,1,,,,13.720407,100.495009
โมนีค สุขุมวิท 64,4830000,,51,,,2,1,,,13.688779,100.602379
เมโทร สกาย รัชดา,3910000,,44,,,1,1,,,13.784071,100.571346
,3650000,16000,40,,,1,1,,,13.804437,100.576231
แอสปาย พระราม 4,2500000,,28,,,1,1,,,13.712091,100.584143
ไอดีโอ ท่าพระ อินเตอร์เชนจ์,2957446,,28,,,1,1,,,13.728973,100.475815
โว๊ค สุขุมวิท 16,5160000,,48,,,1,1,,,13.727937,100.560895
,15960000,,78,,,2,2,,,13.718089,100.58494
เอช สุขุมวิท 43,9280000,45000,40,,,1,1,,,13.732767,100.574008
,4200000,,32,,,1,1,,,13.754357,100.563878
,4050000,,28,,,1,1,,,,
,8515750,,31,,,1,1,1,1,,
ไนท์บริดจ์ ไพร์ม สาทร,7530000,,38,,,1,1,,,13.716801,100.533128
คอนโดเลต พิกเซล สาทร,5000000,,36,,,1,1,,,13.718225,100.549333
วิลล่า สาทร,4470000,,42,,,1,1,,,13.721234,100.504148
ศุภาลัย พรีมา ริวา,8460000,,110,,,2,2,,,13.68844,100.549071
ไอวี แอมพิโอ,7100000,25000,44,,,1,1,,,13.762857,100.568267
ไอดีโอ สาทร-ตากสิน,4550000,,36,,,1,1,,,13.720185,100.502037
ไลฟ์ อโศก,4532000,,29,,,1,1,,,13.750283,100.564773
,10804700,,60,,,2,2,,,13.72461,100.584823
โนเบิล รีโคล สุขุมวิท 19,7220000,,35,,,1,1,,,13.742184,100.559938
ฟิวส์ สาทร - ตากสิน,3300000,,28,,,1,1,,,13.720432,100.496983
ไลฟ์ อโศก,4350000,,29,,,1,1,,,13.750283,100.564773
แอสปาย พระราม9,4330000,20000,39,,,1,1,,,13.754805,100.566923
,5639000,,41,,,1,1,,,13.75598,100.568231
ไลฟ์ สุขุมวิท 48,5370000,,40,,,2,1,,,13.711512,100.594775
,5320000,,41,,,1,1,,,13.75598,100.568231
ไลฟ์ อโศก,4180000,,29,,,1,1,,,13.750283,100.564773
บ้านเจ้าพระยา,7000000,,96,,,2,2,,,13.732823,100.509755
ไอดีโอ สุขุมวิท 93,3500000,,25,,,1,1,,,13.698563,100.604805
โนเบิลเฮ้าส์ พญาไท,11235000,,68,,,2,2,,,13.757169,100.5354
,5980000,,61,,,2,1,,,13.804437,100.576231
,15500000,,102,,,3,2,,,13.760067,100.569381
เซ็นทริค รัชดา-สุทธิสาร,6390000,,54,,,2,1,,,13.789912,100.573599
ริทึ่ม สาทร,6750000,26000,45,,,1,1,,,13.717856,100.516763
โนเบิล โซโล,7200000,28000,60,,,1,1,,,13.740159,100.585009
,4770000,17000,41,,,1,1,,,13.778809,100.574207
โนเบิลเฮ้าส์ พญาไท,5540000,,33,,,1,1,,,13.757169,100.5354
ไลฟ์ รัชดาภิเษก,,18000,31,,,1,1,,,13.790669,100.574196
,6310000,,35,,,1,1,,,13.71581,100.574985
ไอดีโอ สุขุมวิท 93,3450000,,26,,,1,1,,,13.698563,100.604805
,6070000,,34,,,1,1,,,13.755979,100.563553
คลาส สยาม,8775000,,44,,,1,1,,,13.747592,100.528244
,15470000,,60,,,2,2,,,13.735696,100.573042
,9940000,,54,,,2,2,,,,
,8710000,,47,,,1,1,,,13.739801,100.551763
เออร์บาโน่ แอบโซลูท สาทร-ตากสิน,4680000,,38,,,1,1,,,13.721125,100.507202
,3540000,,33,,,1,1,,,13.79696,100.569606
,5150000,30000,42,,,1,1,,,13.717117,100.589111
,4930000,,35,,,1,1,,,13.698563,100.604805
แอสปาย สาทร-ตากสิน ทิมเบอร์ โซน,2680000,,27,,,1,1,,,13.715635,100.479962
คิวเฮ้าส์คอนโด สุขุมวิท 79,10000000,,60,,,2,2,,,13.707504,100.600429
วิลล่า สาทร,5400000,22000,50,,,1,1,,,13.721234,100.504148
,11710000,,200,,,3,3,,,13.742923,100.572249
,,22000,29,,,1,1,,,13.722535,100.566242
วิสซ์ดอม อเวนิว รัชดา-ลาดพร้าว,4110000,,28,,,,1,,,13.80522,100.574214
แอชตัน จุฬา-สีลม,8080000,,35,,,1,1,,,13.731096,100.531012
ลุมพินี พาร์ค ริเวอร์ไซด์ พระราม 3	,2628865,,29,,,1,1,,,13.679026,100.527594
,2890000,,27,,,1,1,,,13.740556,100.60006
เดอะ ลุมพินี 24,14950000,58000,61,,,2,2,,,13.722535,100.566242
แอชตัน อโศก,17020000,,47,,,2,2,,,13.738898,100.5609
,1950000,,62,,,1,2,2,2,,
เอช สุขุมวิท 43,9000000,50000,65,,,2,2,,,13.732767,100.574008
คอนโดเลต พิกเซล สาทร,4000000,15000,29,,,1,1,,,13.718225,100.549333
โนเบิล รีวอลฟ์ รัชดา 2,3820000,,26,,,,1,,,13.763628,100.569442
333 ริเวอร์ไซด์,7629000,,47,,,1,1,,,13.806523,100.51946
อีควิน๊อกซ์ พหล-วิภา,5244000,22000,40,,,1,1,,,13.809454,100.55895
,4420000,,32,,,1,1,,,13.754357,100.563878
เดอะ ซิกเนเจอร์ บาย เออร์บาโน่,7780000,,48,,,1,1,,,13.792876,100.549181
ซี เอกมัย,3480000,,27,,,1,1,,,13.740205,100.589785
ไอดีโอ สาทร-ท่าพระ,3200000,10000,27,,,1,1,,,13.717258,100.482319
,7260000,,35,,,1,1,,,,
เดอะ ไลน์ ราชเทวี,17550000,,61,,,2,2,,,13.752446,100.533475
ดิ เอส อโศก,26900000,,125,,,4,4,,,13.743168,100.561734
,3080000,,23,,,1,1,,,,
,11000000,45000,60,,,1,1,,,13.715212,100.590594
ไอวี แอมพิโอ,5890000,,34,,25,,1,1,1,13.763542,100.568449
เดอะ พาโน ริเวอร์ฟรอนท์ ลิฟวิ่ง เซนเซชั่น,50000000,,217,,,3,3,,,13.671397,100.541818
คลาส สยาม,7730000,,45,,,1,1,,,13.747592,100.528244
,9360000,,55,,,2,2,,,13.75598,100.568231
เอสแอนด์เอส สุขุมวิท,2660000,,36,,,1,1,,,13.683741,100.614941
แอชตัน เรสซิเด้นซ์ 41,17976082,,73,,,2,2,,,13.732784,100.572857
,8250000,,34,,,1,1,,,13.738898,100.5609
,23000000,80000,110,,,2,2,,,13.733558,100.560207
,3500000,,30,,,1,1,,,13.712959,100.600039
สุพรีมเพลส,3800000,25000,54,,,1,1,,,13.713157,100.548747
เดอะ เทรนดี้ คอนโดมิเนียม,4260000,22000,36,,,,1,,,13.740529,100.5579
ไอดีโอ โมบิ พระราม 9,6600000,,46,,,2,1,,,13.755643,100.565972
ไซมิส จอยญ่า,5110000,27000,42,,,1,1,,,13.742912,100.570998
ยู ดีไลท์ เรสซิเดนซ์ ริเวอร์ฟรอนท์ พระราม 3,3200000,,34,,,1,1,,,13.675303,100.532792
คีนน์ บาย แสนสิริ,6900000,30000,35,,,1,1,,,13.724993,100.576933
,14890000,60000,127,,,3,2,,,13.720641,100.528207
,2480000,,34,,,1,1,,,13.708778,100.481201
อีควิน๊อกซ์ พหล-วิภา,5860000,,40,,,1,1,,,13.809454,100.55895
วิลล่าอโศก,10165000,,80,,,1,2,,,13.748849,100.561572
คลาส สารสิน ราชดำริ,22700000,,113,,,3,3,,,13.734327,100.542196
,4900000,,38,,,1,1,,,13.795069,100.550558
แอชตัน สีลม,23718000,,87,,,2,2,,,13.726391,100.526828
ไลฟ์ ลาดพร้าว วัลเล่ย์,5055600,,35,,,1,1,1,2,,
แอชตัน อโศก,8500000,,34,,,1,1,,,13.738898,100.5609
ไลฟ์ อโศก,4080000,,29,,,1,1,,,13.750283,100.564773
ไอดีโอ โมบิ สุขุมวิท 66,16800000,,86,,,2,2,,,13.681605,100.609846
333 ริเวอร์ไซด์,6710000,,47,,,1,1,,,13.806523,100.51946
เดอะรีเซิร์ฟ เกษมสันต์ 3,7520000,,40,,,1,1,,,13.749074,100.527364
เดอะ ไลน์ จตุจักร-หมอชิต,4750000,,26,,,1,1,,,13.806244,100.556048
ไอดีโอ คิว จุฬา-สามย่าน,6900000,,33,,,1,1,,,13.733349,100.527144
ไอดีโอ คิว ราชเทวี,10210000,,51,,,1,1,,,13.75282,100.533865
ไลฟ์ รัชดาภิเษก,7200000,,66,,,2,1,,,13.790669,100.574196
,7650000,,35,,,1,1,,,13.761155,100.536971
เวีย โบทานิ,6300000,25000,35,,,1,1,,,13.731497,100.574932
แอสปาย สาทร-ท่าพระ,3120000,12000,31,,,1,1,,,13.715635,100.479962
,9730000,,33,,,1,1,,,13.725512,100.566204
,9175000,,33,,,1,1,,,13.719733,100.522404
แมกโนเลียส์ วอเตอร์ฟรอนท์ เรสซิเดนซ์ ณ ไอคอนสยาม,27020000,,103,,,2,2,,,13.727956,100.511167
,23500000,,184,,,2,3,,,13.74306,100.57351
ไอดีโอ มอร์ฟ 38,12680000,,58,,,2,1,,,13.720934,100.579078
ฟิวส์ สาทร - ตากสิน,3300000,13000,28,,,1,1,,,13.720432,100.496983
อมันตา ลุมพินี,14900000,55000,94,,,3,3,,,13.723162,100.551403
,3200000,,34,,,1,1,,,13.701033,100.516013
,3520000,15000,43,,,1,1,,,13.703637,100.599567
ไอดีโอ สุขุมวิท 93,3800000,,31,,,1,1,,,13.698563,100.604805
แอชตัน จุฬา-สีลม,6250000,,30,,,1,1,,,13.731096,100.531012
,14600000,,63,,,2,2,,,13.760893,100.536221
,3730000,30000,64,,,1,1,,,13.7398,100.540759
,3620000,,34,,,1,1,,,13.79728,100.552184
แอชตัน อโศก,10980000,,35,,,1,1,,,13.738898,100.5609
ไอดีโอ โมบิ สุขุมวิท 66,7000000,,41,,,1,1,,,13.681605,100.609846
มาเอสโตร 03 รัชดา - พระราม 9,3990000,,29,,,1,1,,,13.76283,100.564577
แอสปาย สาทร-ตากสิน ทิมเบอร์ โซน,3030000,,31,,,1,1,,,13.715635,100.479962
แอสปาย สุขุมวิท 48,3890000,,38,,,1,1,,,13.71118,100.593972
ไอดีโอ คิว พญาไท,7704000,,41,,,1,1,,,13.755583,100.532839
ควอทโทร บาย แสนสิริ,13900000,50000,53,,,1,1,,,13.727561,100.581708
,3710000,,26,,,1,1,,,13.698563,100.604805
,5320000,,61,,,2,1,,,13.804437,100.576231
,7200000,,35,,,1,1,,,13.722468,100.58455
ไลฟ์ อโศก-พระราม 9 ,6940000,,45,,,2,1,,,13.754357,100.563878
คาซ่า คอนโด อโศก-ดินแดง ,2200000,10000,26,,,,1,,,13.760815,100.555733
นายน์ บาย แสนสิริ,4815000,,32,,,1,1,1,2,13.721375,100.497539
แอชตัน อโศก,8340000,,34,,,1,1,,,13.738898,100.5609
,14950000,,70,,,2,2,,,13.722468,100.58455
ศุภาลัย เอลีท สาทร-สวนพลู,10700000,,52,,,1,1,,,13.721157,100.537437
,14790000,55000,120,,,3,3,,,13.724428,100.581965
,4850000,,48,,,1,1,,,13.729919,100.5075
,3149000,,29,,,1,1,,,13.772054,100.579979
,9050000,50000,56,,,1,1,,,13.740693,100.541353
คาซ่า คอนโด อโศก-ดินแดง ,2700000,,31,,,1,1,,,13.760815,100.555733
ไอดีโอ ลาดพร้าว 5,4900000,20000,58,,,2,1,,,13.810582,100.565777
,10980000,,120,,,2,2,,,13.744721,100.558561
วายน์ สุขุมวิท,5110000,23000,35,,,1,1,,,13.712821,100.594265
ไอดีโอ คิว ราชเทวี,6600000,20000,34,,,1,1,,,13.75282,100.533865
วิสซ์ดอม คอนเนค สุขุมวิท,4370000,,29,,,1,1,,,13.685642,100.610619
อิลีเม้นท์ ศรีนครินทร์,6700000,,67,,,2,2,1,3,13.696778,100.644537
,3400000,,26,,,1,1,,,13.780297,100.573986
ดิ แอดเดรส อโศก,6920000,25000,45,,,1,1,,,13.749514,100.561981
,7500000,26000,49,,,1,1,1,2,,
แอสปาย พระราม9,4790000,,39,,,1,1,,,13.754805,100.566923
ควินน์ คอนโด รัชดา17,5900000,22000,46,,,1,1,,,13.786325,100.573246
แอชตัน จุฬา-สีลม,7900000,,35,,,1,1,,,13.731096,100.531012
เอ สเปซ ไอดี อโศก-รัชดา,4790000,,33,,,1,1,,,13.756804,100.560239
,5400000,,35,,,1,1,,,,
แอชตัน จุฬา-สีลม,7180000,,35,,,1,1,,,13.731096,100.531012
ไลฟ์ แอท ลาดพร้าว 18,4100000,,40,,,1,1,,,13.807363,100.570213
เดอะ เพรสซิเด้นท์ สาทร-ราชพฤกษ์ 1,2195800,,30,,,1,1,,,13.72043,100.458841
เอสแอนด์เอส สุขุมวิท,2130000,11000,36,,,1,1,,,13.683741,100.614941
โนเบิล รีฟอร์ม,8300000,,33,,,1,1,,,13.781067,100.544971
,6110000,,36,,,1,1,,,13.75598,100.568231
,4020000,,27,,,,1,,,13.692036,100.607939
,6160000,,60,,,2,1,,,13.804437,100.576231
แอชตัน เรสซิเด้นซ์ 41,17976082,,73,,,2,2,,,13.732784,100.572857
เดอะ ไลน์ จตุจักร-หมอชิต,4570000,,26,,,1,1,,,13.806244,100.556048
,3550000,,35,,,1,1,,,13.707177,100.585732
,4950000,17000,35,,,1,1,,,13.754496,100.54253
ไอดีโอ คิว สยาม - ราชเทวี,7160000,,34,,,1,1,,,13.75301,100.533877
แอชตัน จุฬา-สีลม,10240000,,35,,,1,1,,,13.731096,100.531012
บลอคส์ 77,3700000,,40,,,1,1,,,13.710381,100.601693
วิสซ์ดอม อเวนิว รัชดา-ลาดพร้าว,4073000,17000,28,,,,1,,,13.80522,100.574214
ไลฟ์ อโศก-พระราม 9 ,4350000,,32,,,1,1,,,13.754357,100.563878
ริทึ่ม สุขุมวิท 44/1,7000000,35000,45,,,1,1,,,13.715212,100.590594
,2400000,14000,62,,,2,2,,,,
,12300000,,50,,,1,1,,,13.722079,100.55337
ควินน์ คอนโด รัชดา17,5860000,,45,,,1,1,,,13.786325,100.573246
ดิ เอดิเตอร์ สะพายควาย,8599000,,55,,,2,1,,,13.794136,100.549538
ไอดีโอเวิร์ฟ,5320000,,36,,,1,1,,,13.754496,100.54253
ไอดีโอ คิว ราชเทวี,6600000,20000,34,,,1,1,,,13.75282,100.533865
เวีย 49,6000000,45000,35,,,1,1,,,13.730276,100.575962
,8520000,35000,87,,,2,2,,,13.740042,100.580028
คอนโดเลต ไอซ์ ราชเทวี,15000000,,91,,,2,2,,,13.753338,100.530981
ไอดีโอ คิว ราชเทวี,6190000,,36,,,1,1,,,13.75282,100.533865
ไลฟ์ สุขุมวิท 48,3350000,,30,,,1,1,,,13.711512,100.594775
แอสปาย สาทร-ตากสิน (บริค โซน),3050000,,31,,,1,1,,,13.715635,100.479962
เดอะ ไลน์ จตุจักร-หมอชิต,6040000,,31,,,1,1,,,13.806244,100.556048
ศุภาลัย ลอฟท์ @ สถานีตลาดพลู,2647000,,33,,,1,1,,,13.711298,100.479447
แอสปาย สาทร-ตากสิน ทิมเบอร์ โซน,4570000,,46,,,1,1,,,13.715635,100.479962
ไลฟ์ แอท สาทร 10,5160000,23000,41,,,1,1,,,13.7226,100.527373
คณาพญา เรสซิเดนซ์,55000000,,236,,,4,5,,,13.687258,100.513781
,1370000,7200,24,,,1,1,1,1,13.763818,100.660876
ศุภาลัย พรีเมียร์ รัชดาฯ-นราธิวาส-สาทร,5640000,,84,,,2,2,,,13.698521,100.541421
เดอะ ไลน์ จตุจักร-หมอชิต,11165000,,57,,,2,2,,,13.806244,100.556048
ซิตี้สมาร์ท สุขุมวิท 18,11700000,70000,119,,,3,3,,,13.735016,100.562227
แอชตัน อโศก,8250000,,34,,,1,1,,,13.738898,100.5609
เดอะ เบส สุขุมวิท 77,7980000,28000,57,,,2,2,,,13.710947,100.602345
,3210000,,36,,,,1,,,13.717451,100.508914
ริทึ่ม สาทร,4750000,25000,36,,,1,1,1,2,13.717838,100.516781
ซีล บาย แสนสิริ,3470000,,35,,,1,1,,,13.730372,100.587924
วิลล่าอโศก,7020000,,49,,,1,1,,,13.748849,100.561572
พาร์ค 24 เฟส 1,4630000,,29,,,1,1,,,13.725512,100.566204
,4771000,,40,,,1,1,,,,
,10640000,,78,,,2,2,,,13.687433,100.517984
ไอดีโอบลูโคฟ สุขุมวิท ,4460000,14000,35,,,1,1,,,13.678554,100.608607
เดอะ ไลน์ จตุจักร-หมอชิต,5800000,,31,,,1,1,,,13.806244,100.556048
คอนโดเลต ไอซ์ ราชเทวี,7130000,,40,,,1,1,,,13.753338,100.530981
ซีล บาย แสนสิริ,3490000,,34,,,1,1,1,2,13.730289,100.587945
,3400000,,29,,,1,1,,,13.772054,100.579979
ณ วรา เรสซิเดนซ์,10300000,,39,,,1,1,,,13.741869,100.544394
เดอะ รูม สุขุมวิท 69 ,13400000,,81,,,2,2,,,13.714446,100.592856
ไลฟ์ อโศก,4950000,,35,,,1,1,,,13.750283,100.564773
วัน ทองหล่อ สเตชั่น,4900000,,50,,,1,1,,,13.721818,100.580479
ดิ อิสสระ ลาดพร้าว,5750000,,52,,,1,1,,,13.80886,100.567982
เอ สเปซ เพลย์ รัชดา-สุทธิสาร,4470000,,76,,,2,2,,,13.789517,100.588879
เอ็ม พญาไท,8800000,,46,,,1,1,,,13.760893,100.536221
เดอะ พาโน,16000000,50000,120,,,2,3,,,13.671397,100.541818
ควอด สาทร,2790000,15000,29,,,,1,,,13.717384,100.530653
แอชตัน จุฬา-สีลม,6900000,,35,,,1,1,,,13.731096,100.531012
ดิ แอดเดรส อโศก,6650000,32000,45,,,1,1,,,13.749514,100.561981
,1500000,,58,,,1,1,,2,,
,6283000,,40,,,1,1,,,,
คาซ่า คอนโด อโศก-ดินแดง ,2550000,,26,,,1,1,,,13.760815,100.555733
แอชตัน อโศก,17530000,,65,,,2,2,,,13.738898,100.5609
สาทร พลัส ออน เดอะ พอนด์,3730000,15000,52,,,1,1,,,13.715639,100.546967
เดอะ ไลน์ พหลโยธิน-ประดิพัทธ์,5890000,,34,,,1,1,,,13.790398,100.545904
ดิ แอดเดรส สาทร,10640000,35000,56,,,1,1,,,13.722747,100.52563
,8950000,35000,48,,,1,1,,,13.718089,100.58494
,7200000,,35,,,1,1,,,13.718089,100.58494
,2850000,,42,,,1,1,,,13.678308,100.606222
เดอะ ไลน์ พหลโยธิน-ประดิพัทธ์,6380000,,40,,,1,1,,,13.790398,100.545904
,3240000,,30,,,1,1,,,13.740556,100.60006
แอสปาย สาทร-ท่าพระ,3230000,,31,,,1,1,,,13.715635,100.479962
สตาร์วิว พระราม 3,8520000,,77,,,2,2,,,13.687433,100.517984
เซ็นทริค สาทร-เซนต์หลุยส์,8970000,,60,,,2,2,,,13.718619,100.527063
ไอดีโอ โมบิ สุขุมวิท อีสท์เกต,2490000,,22,,,1,1,1,1,13.665637,100.603751
เดอะ ไลน์ จตุจักร-หมอชิต,4570000,,26,,,1,1,,,13.806244,100.556048
,2890000,15000,31,,,1,1,,,13.753416,100.576341
เออร์บาโน่ แอบโซลูท สาทร-ตากสิน,9300000,,74,,,2,2,,,13.721125,100.507202
ริทึ่ม สุขุมวิท 44/1,9900000,,60,,,1,1,,,13.715212,100.590594
ไนท์บริดจ์ ไพร์ม สาทร,8500000,,39,,,1,1,,,13.716801,100.533128
แอสปาย สุขุมวิท 48,3090000,13000,27,,,1,1,,,13.71118,100.593972
เอ สเปซ ไอดี อโศก-รัชดา,4200000,,34,,,1,1,1,2,13.756709,100.559808
มาเอสโตร 03 รัชดา - พระราม 9,3990000,,29,,,1,1,,,13.76283,100.564577
วัน คอนโด สุขุมวิท 52,4260000,18000,50,,,1,1,,,13.704006,100.599695
เดอะเพรสซิเดนท์ สุขุมวิท,4040000,,34,,,1,1,,,13.707177,100.585732
ไซมิส จอยญ่า,8700000,50000,70,,,2,2,,,13.742912,100.570998
ไอดีโอ สุขุมวิท 93,3600000,,31,,,1,1,,,13.698563,100.604805
,13290000,,72,,,2,2,,,13.739801,100.551763
ไฮฟ์ ตากสิน,6600000,25000,66,,,2,2,,,13.721894,100.496529
เดอะ แคปปิตอล ราชปรารภ-วิภา,5400000,,47,,,2,2,,,13.763877,100.546047
,2870000,18000,31,,,1,1,,,13.721818,100.580479
,3830000,,25,,,1,1,,,13.763628,100.569442
เอสแอนด์เอส สุขุมวิท,3040000,,46,,,1,1,,,13.683741,100.614941
เดอะ เบส พาร์คเวสต์ - สุขุมวิท 77,4900000,,48,,,2,1,,,13.712959,100.600039
คอนโด เลต มิสท์ พระราม 9,4700000,,28,,,1,1,,2,13.755787,100.566304
ไอดีโอโมบิ วงศ์สว่าง-อินเตอร์เชนจ์,2765550,,22,,,1,1,,,13.818953,100.532139
,7200000,,35,,,1,1,,,13.722468,100.58455
,3640000,,23,,,1,1,,,,
เดอะบางกอก ,14400000,60000,120,,,3,3,,,13.73117,100.527316
โซซิโอ เรฟเฟอเรนซ์ 61,6400000,35000,46,,,1,1,,,13.724752,100.583137
วิสซ์ดอม สเตชั่น รัชดา-ท่าพระ,2480000,,23,,,,1,,,13.713712,100.478352
,7450000,,47,,,2,1,,,13.751983,100.534693
แอสปาย พระราม9,4300000,,39,,,1,1,,,13.754805,100.566923
ไลฟ์ อโศก,5130000,,35,,,1,1,,,13.750283,100.564773
ไอดีโอ คิว สยาม - ราชเทวี,5680000,,21,,,1,1,,,13.75301,100.533877
,26000000,135000,400,,,4,4,,,13.779463,100.539335
,5310000,24000,28,,,1,1,,,13.718323,100.587363
,4990000,,42,,,1,1,,,13.790049,100.547449
เดอะทรัสต์ เรสซิเด้นซ์ รัชดา-พระราม 3,2770000,,30,,,1,1,,,13.694152,100.536283
ไอวี่ ทองหล่อ,7800000,25000,43,,,1,1,,,13.737175,100.583555
เมโทร ปาร์ค สาทร,1390000,,32,,,1,1,1,2,13.708327,100.451058
แอชตัน อโศก,8200000,,35,,,1,1,,,13.738898,100.5609
วิสซ์ดอม ดิ เอ็กซ์คลูซีฟ,4210000,19000,48,,,1,1,,,13.689646,100.606782
,7060000,,51,,,2,2,,,13.722909,100.576852
เดอะ ลุมพินี 24,7600000,40000,38,,,1,1,,,13.722535,100.566242
วีธารา สุขุมวิท 36,10465000,,78,,,2,2,,,13.722909,100.576852
